{
"type": "FeatureCollection",
"features": [
{ "type": "Feature", "properties": { "station_name": "Aadorf" }, "geometry": { "type": "Point", "coordinates": [ 8.90356210826161, 47.487932861125898 ] } },
{ "type": "Feature", "properties": { "station_name": "Aalen" }, "geometry": { "type": "Point", "coordinates": [ 10.096273277458801, 48.8410156251947 ] } },
{ "type": "Feature", "properties": { "station_name": "Aarau" }, "geometry": { "type": "Point", "coordinates": [ 8.054178057549841, 47.391855092818801 ] } },
{ "type": "Feature", "properties": { "station_name": "Aarau Torfeld" }, "geometry": { "type": "Point", "coordinates": [ 8.06264018752743, 47.393563944197197 ] } },
{ "type": "Feature", "properties": { "station_name": "Aarberg" }, "geometry": { "type": "Point", "coordinates": [ 7.27806958457391, 47.043675861814002 ] } },
{ "type": "Feature", "properties": { "station_name": "Aarburg-Oftringen" }, "geometry": { "type": "Point", "coordinates": [ 7.90762690207819, 47.320788412506403 ] } },
{ "type": "Feature", "properties": { "station_name": "Aareschlucht Ost (Bahn)" }, "geometry": { "type": "Point", "coordinates": [ 8.217896018103421, 46.711998843971898 ] } },
{ "type": "Feature", "properties": { "station_name": "Aareschlucht West" }, "geometry": { "type": "Point", "coordinates": [ 8.198573256339319, 46.721249532671202 ] } },
{ "type": "Feature", "properties": { "station_name": "Aarwangen" }, "geometry": { "type": "Point", "coordinates": [ 7.76961872495969, 47.2408749236807 ] } },
{ "type": "Feature", "properties": { "station_name": "Aarwangen Schloss" }, "geometry": { "type": "Point", "coordinates": [ 7.76361797886094, 47.245180516588398 ] } },
{ "type": "Feature", "properties": { "station_name": "Aarwangen Vorstadt" }, "geometry": { "type": "Point", "coordinates": [ 7.77130755769407, 47.237489969704797 ] } },
{ "type": "Feature", "properties": { "station_name": "Aathal" }, "geometry": { "type": "Point", "coordinates": [ 8.76715293234907, 47.334969225105397 ] } },
{ "type": "Feature", "properties": { "station_name": "Achern" }, "geometry": { "type": "Point", "coordinates": [ 8.065326150227319, 48.633991100315399 ] } },
{ "type": "Feature", "properties": { "station_name": "Acla da Fontauna" }, "geometry": { "type": "Point", "coordinates": [ 8.84579145233184, 46.6971710311173 ] } },
{ "type": "Feature", "properties": { "station_name": "Adliswil" }, "geometry": { "type": "Point", "coordinates": [ 8.52404186697397, 47.312304896072398 ] } },
{ "type": "Feature", "properties": { "station_name": "Aefligen" }, "geometry": { "type": "Point", "coordinates": [ 7.55951176312773, 47.095499649721901 ] } },
{ "type": "Feature", "properties": { "station_name": "Aesch BL" }, "geometry": { "type": "Point", "coordinates": [ 7.60311598702496, 47.4673018469379 ] } },
{ "type": "Feature", "properties": { "station_name": "Aesch LU (See)" }, "geometry": { "type": "Point", "coordinates": [ 8.22991547660661, 47.258418327226501 ] } },
{ "type": "Feature", "properties": { "station_name": "Affoltern am Albis" }, "geometry": { "type": "Point", "coordinates": [ 8.44743353953359, 47.277028590740798 ] } },
{ "type": "Feature", "properties": { "station_name": "Affoltern-Weier" }, "geometry": { "type": "Point", "coordinates": [ 7.74985578870631, 47.061914770057797 ] } },
{ "type": "Feature", "properties": { "station_name": "Agde" }, "geometry": { "type": "Point", "coordinates": [ 3.46579918129681, 43.317492630110998 ] } },
{ "type": "Feature", "properties": { "station_name": "Agno" }, "geometry": { "type": "Point", "coordinates": [ 8.90092106132593, 45.995929855931003 ] } },
{ "type": "Feature", "properties": { "station_name": "Aguilcourt-Variscourt" }, "geometry": { "type": "Point", "coordinates": [ 3.97310477176825, 49.408010766034998 ] } },
{ "type": "Feature", "properties": { "station_name": "Aigle" }, "geometry": { "type": "Point", "coordinates": [ 6.96418924110601, 46.315703066069602 ] } },
{ "type": "Feature", "properties": { "station_name": "Aigle-Château" }, "geometry": { "type": "Point", "coordinates": [ 6.97892161176762, 46.316869503793797 ] } },
{ "type": "Feature", "properties": { "station_name": "Aigle-Dépôt" }, "geometry": { "type": "Point", "coordinates": [ 6.97537326639486, 46.318290290624901 ] } },
{ "type": "Feature", "properties": { "station_name": "Aigle-Hôpital" }, "geometry": { "type": "Point", "coordinates": [ 6.9660487537444, 46.310472403972597 ] } },
{ "type": "Feature", "properties": { "station_name": "Aigle-Parc Aventure" }, "geometry": { "type": "Point", "coordinates": [ 6.98621593187569, 46.315299770646597 ] } },
{ "type": "Feature", "properties": { "station_name": "Aigle-Place-du-Marché" }, "geometry": { "type": "Point", "coordinates": [ 6.97034270080309, 46.317241765918702 ] } },
{ "type": "Feature", "properties": { "station_name": "Aiguebelette-le-Lac" }, "geometry": { "type": "Point", "coordinates": [ 5.81368990711547, 45.536244544233 ] } },
{ "type": "Feature", "properties": { "station_name": "Aiguebelle" }, "geometry": { "type": "Point", "coordinates": [ 6.30671228456741, 45.543851445330297 ] } },
{ "type": "Feature", "properties": { "station_name": "Aigueperse" }, "geometry": { "type": "Point", "coordinates": [ 3.19827190649594, 46.014785981290899 ] } },
{ "type": "Feature", "properties": { "station_name": "Aillevillers" }, "geometry": { "type": "Point", "coordinates": [ 6.33550328942745, 47.9126187534198 ] } },
{ "type": "Feature", "properties": { "station_name": "Aime-la-Plagne" }, "geometry": { "type": "Point", "coordinates": [ 6.64839548608268, 45.554206250188997 ] } },
{ "type": "Feature", "properties": { "station_name": "Airolo" }, "geometry": { "type": "Point", "coordinates": [ 8.60691145194553, 46.527430741927198 ] } },
{ "type": "Feature", "properties": { "station_name": "Aiserey" }, "geometry": { "type": "Point", "coordinates": [ 5.15835094095337, 47.170643196220702 ] } },
{ "type": "Feature", "properties": { "station_name": "Aix-en-Provence TGV" }, "geometry": { "type": "Point", "coordinates": [ 5.31722698212486, 43.455170041274698 ] } },
{ "type": "Feature", "properties": { "station_name": "Aix-les-Bains-le-Revard" }, "geometry": { "type": "Point", "coordinates": [ 5.90898319246813, 45.688199584300598 ] } },
{ "type": "Feature", "properties": { "station_name": "Alaï" }, "geometry": { "type": "Point", "coordinates": [ 4.77152739640482, 45.751744740455699 ] } },
{ "type": "Feature", "properties": { "station_name": "Albbruck" }, "geometry": { "type": "Point", "coordinates": [ 8.13177453180289, 47.592232626603099 ] } },
{ "type": "Feature", "properties": { "station_name": "Albens" }, "geometry": { "type": "Point", "coordinates": [ 5.94852703128058, 45.7858393918495 ] } },
{ "type": "Feature", "properties": { "station_name": "Albertville" }, "geometry": { "type": "Point", "coordinates": [ 6.38361705605159, 45.6736264508151 ] } },
{ "type": "Feature", "properties": { "station_name": "Albeuve" }, "geometry": { "type": "Point", "coordinates": [ 7.05505383210735, 46.517775983661302 ] } },
{ "type": "Feature", "properties": { "station_name": "Albigny-Neuville" }, "geometry": { "type": "Point", "coordinates": [ 4.83267571780334, 45.874746955657798 ] } },
{ "type": "Feature", "properties": { "station_name": "Albstadt-Ebingen" }, "geometry": { "type": "Point", "coordinates": [ 9.026963678858291, 48.210288962296097 ] } },
{ "type": "Feature", "properties": { "station_name": "Allaman" }, "geometry": { "type": "Point", "coordinates": [ 6.40099945680172, 46.475984858367703 ] } },
{ "type": "Feature", "properties": { "station_name": "Alle" }, "geometry": { "type": "Point", "coordinates": [ 7.1282485614676, 47.424228706408996 ] } },
{ "type": "Feature", "properties": { "station_name": "Allensbach" }, "geometry": { "type": "Point", "coordinates": [ 9.06885212056261, 47.7144664244476 ] } },
{ "type": "Feature", "properties": { "station_name": "Alleyras" }, "geometry": { "type": "Point", "coordinates": [ 3.67358848969542, 44.919351800513198 ] } },
{ "type": "Feature", "properties": { "station_name": "Allières" }, "geometry": { "type": "Point", "coordinates": [ 7.00789227968451, 46.469822929813901 ] } },
{ "type": "Feature", "properties": { "station_name": "Allmendingen (D)" }, "geometry": { "type": "Point", "coordinates": [ 9.72238547300338, 48.327732107528803 ] } },
{ "type": "Feature", "properties": { "station_name": "Alp Grüm" }, "geometry": { "type": "Point", "coordinates": [ 10.031136436198199, 46.3747506352166 ] } },
{ "type": "Feature", "properties": { "station_name": "Alpnach Dorf" }, "geometry": { "type": "Point", "coordinates": [ 8.275316331072331, 46.940447504027702 ] } },
{ "type": "Feature", "properties": { "station_name": "Alpnachstad" }, "geometry": { "type": "Point", "coordinates": [ 8.277912462243799, 46.954840472926001 ] } },
{ "type": "Feature", "properties": { "station_name": "Alpnachstad (See)" }, "geometry": { "type": "Point", "coordinates": [ 8.27876586176383, 46.955674373800598 ] } },
{ "type": "Feature", "properties": { "station_name": "Altdorf UR" }, "geometry": { "type": "Point", "coordinates": [ 8.630815621659281, 46.877906344937202 ] } },
{ "type": "Feature", "properties": { "station_name": "Altendorf" }, "geometry": { "type": "Point", "coordinates": [ 8.825031386112951, 47.193764996859301 ] } },
{ "type": "Feature", "properties": { "station_name": "Altendorf Seestatt" }, "geometry": { "type": "Point", "coordinates": [ 8.83247841981934, 47.194894269671401 ] } },
{ "type": "Feature", "properties": { "station_name": "Altenrhein Schifflände" }, "geometry": { "type": "Point", "coordinates": [ 9.56117381209285, 47.497517029498702 ] } },
{ "type": "Feature", "properties": { "station_name": "Altenstadt (Feldkirch)" }, "geometry": { "type": "Point", "coordinates": [ 9.61556680255385, 47.256095394875203 ] } },
{ "type": "Feature", "properties": { "station_name": "Alter Zoll" }, "geometry": { "type": "Point", "coordinates": [ 9.522043198311151, 47.368582442619399 ] } },
{ "type": "Feature", "properties": { "station_name": "Altkirch" }, "geometry": { "type": "Point", "coordinates": [ 7.23904676862632, 47.627019706490202 ] } },
{ "type": "Feature", "properties": { "station_name": "Altmatt" }, "geometry": { "type": "Point", "coordinates": [ 8.69588059769711, 47.131514088600902 ] } },
{ "type": "Feature", "properties": { "station_name": "Altnau" }, "geometry": { "type": "Point", "coordinates": [ 9.26776607395289, 47.620728980495898 ] } },
{ "type": "Feature", "properties": { "station_name": "Altnau (See)" }, "geometry": { "type": "Point", "coordinates": [ 9.269086597420721, 47.623132744761399 ] } },
{ "type": "Feature", "properties": { "station_name": "Altreu" }, "geometry": { "type": "Point", "coordinates": [ 7.44888423587301, 47.190383138867801 ] } },
{ "type": "Feature", "properties": { "station_name": "Altshausen" }, "geometry": { "type": "Point", "coordinates": [ 9.55148099017585, 47.930708925816802 ] } },
{ "type": "Feature", "properties": { "station_name": "Altstätten SG" }, "geometry": { "type": "Point", "coordinates": [ 9.555747987776011, 47.372901980462899 ] } },
{ "type": "Feature", "properties": { "station_name": "Altstätten Stadt" }, "geometry": { "type": "Point", "coordinates": [ 9.537494221200159, 47.376837927288001 ] } },
{ "type": "Feature", "properties": { "station_name": "Alvaneu" }, "geometry": { "type": "Point", "coordinates": [ 9.650726862779189, 46.671251083919103 ] } },
{ "type": "Feature", "properties": { "station_name": "Alès" }, "geometry": { "type": "Point", "coordinates": [ 4.08498095726806, 44.127962011317997 ] } },
{ "type": "Feature", "properties": { "station_name": "Amagne-Lucquy" }, "geometry": { "type": "Point", "coordinates": [ 4.47387961012322, 49.523833806133403 ] } },
{ "type": "Feature", "properties": { "station_name": "Ambazac" }, "geometry": { "type": "Point", "coordinates": [ 1.40668986990425, 45.952958574745303 ] } },
{ "type": "Feature", "properties": { "station_name": "Ambronay-Priay" }, "geometry": { "type": "Point", "coordinates": [ 5.33804094726081, 46.011442014976197 ] } },
{ "type": "Feature", "properties": { "station_name": "Ambrì-Piotta" }, "geometry": { "type": "Point", "coordinates": [ 8.689206115135169, 46.511025287275402 ] } },
{ "type": "Feature", "properties": { "station_name": "Ambérieu" }, "geometry": { "type": "Point", "coordinates": [ 5.34149047795231, 45.9538142051533 ] } },
{ "type": "Feature", "properties": { "station_name": "Amifontaine" }, "geometry": { "type": "Point", "coordinates": [ 3.91052812906777, 49.484742990736699 ] } },
{ "type": "Feature", "properties": { "station_name": "Amplepuis" }, "geometry": { "type": "Point", "coordinates": [ 4.32676251602249, 45.9710114481571 ] } },
{ "type": "Feature", "properties": { "station_name": "Amriswil" }, "geometry": { "type": "Point", "coordinates": [ 9.29783268651655, 47.550892914837803 ] } },
{ "type": "Feature", "properties": { "station_name": "Amsterdam Centraal" }, "geometry": { "type": "Point", "coordinates": [ 4.89942952657556, 52.379187728991397 ] } },
{ "type": "Feature", "properties": { "station_name": "Anchamps" }, "geometry": { "type": "Point", "coordinates": [ 4.67024234810624, 49.930746610853603 ] } },
{ "type": "Feature", "properties": { "station_name": "Ancy-sur-Moselle" }, "geometry": { "type": "Point", "coordinates": [ 6.06234357779436, 49.057714404616 ] } },
{ "type": "Feature", "properties": { "station_name": "Andelfingen" }, "geometry": { "type": "Point", "coordinates": [ 8.67516544724243, 47.5935775431861 ] } },
{ "type": "Feature", "properties": { "station_name": "Andelot" }, "geometry": { "type": "Point", "coordinates": [ 5.92353590007289, 46.859494023280497 ] } },
{ "type": "Feature", "properties": { "station_name": "Andermatt" }, "geometry": { "type": "Point", "coordinates": [ 8.59326604277785, 46.636887689017399 ] } },
{ "type": "Feature", "properties": { "station_name": "Andrézieux" }, "geometry": { "type": "Point", "coordinates": [ 4.25522966993809, 45.521732580741102 ] } },
{ "type": "Feature", "properties": { "station_name": "Angers-St-Laud" }, "geometry": { "type": "Point", "coordinates": [ -0.55852752797906, 47.464083212716901 ] } },
{ "type": "Feature", "properties": { "station_name": "Angoulême" }, "geometry": { "type": "Point", "coordinates": [ 0.164688141060557, 45.654020165284102 ] } },
{ "type": "Feature", "properties": { "station_name": "Anières (lac)" }, "geometry": { "type": "Point", "coordinates": [ 6.22124656842439, 46.278363930708601 ] } },
{ "type": "Feature", "properties": { "station_name": "Annecy" }, "geometry": { "type": "Point", "coordinates": [ 6.12163238655451, 45.9021216829954 ] } },
{ "type": "Feature", "properties": { "station_name": "Annemasse" }, "geometry": { "type": "Point", "coordinates": [ 6.23640114726959, 46.199344095202697 ] } },
{ "type": "Feature", "properties": { "station_name": "Anor" }, "geometry": { "type": "Point", "coordinates": [ 4.09317359266037, 49.984962400774698 ] } },
{ "type": "Feature", "properties": { "station_name": "Anse" }, "geometry": { "type": "Point", "coordinates": [ 4.72036834096709, 45.938885619151399 ] } },
{ "type": "Feature", "properties": { "station_name": "Antibes" }, "geometry": { "type": "Point", "coordinates": [ 7.11946303798769, 43.585676835186497 ] } },
{ "type": "Feature", "properties": { "station_name": "Appenweier" }, "geometry": { "type": "Point", "coordinates": [ 7.97318595152235, 48.541460615705802 ] } },
{ "type": "Feature", "properties": { "station_name": "Appenzell" }, "geometry": { "type": "Point", "coordinates": [ 9.40882852303781, 47.328290287034399 ] } },
{ "type": "Feature", "properties": { "station_name": "Apples" }, "geometry": { "type": "Point", "coordinates": [ 6.42358310304763, 46.550880576996697 ] } },
{ "type": "Feature", "properties": { "station_name": "Arbois" }, "geometry": { "type": "Point", "coordinates": [ 5.76433646539907, 46.912484529159101 ] } },
{ "type": "Feature", "properties": { "station_name": "Arbon" }, "geometry": { "type": "Point", "coordinates": [ 9.43336151345053, 47.510588495693 ] } },
{ "type": "Feature", "properties": { "station_name": "Arbon (See)" }, "geometry": { "type": "Point", "coordinates": [ 9.440323456903419, 47.5126454077243 ] } },
{ "type": "Feature", "properties": { "station_name": "Arbon Seemoosriet" }, "geometry": { "type": "Point", "coordinates": [ 9.424342427996709, 47.521484964311199 ] } },
{ "type": "Feature", "properties": { "station_name": "Arc-et-Senans" }, "geometry": { "type": "Point", "coordinates": [ 5.77664338479322, 47.030317108047598 ] } },
{ "type": "Feature", "properties": { "station_name": "Arches" }, "geometry": { "type": "Point", "coordinates": [ 6.52842547987182, 48.119887093781102 ] } },
{ "type": "Feature", "properties": { "station_name": "Arcisate" }, "geometry": { "type": "Point", "coordinates": [ 8.862598931300059, 45.858101681594803 ] } },
{ "type": "Feature", "properties": { "station_name": "Arcy-sur-Cure" }, "geometry": { "type": "Point", "coordinates": [ 3.76688751511706, 47.600846764182002 ] } },
{ "type": "Feature", "properties": { "station_name": "Ardez" }, "geometry": { "type": "Point", "coordinates": [ 10.201052772213099, 46.773539658700599 ] } },
{ "type": "Feature", "properties": { "station_name": "Ardon" }, "geometry": { "type": "Point", "coordinates": [ 7.26953558937358, 46.2077808691934 ] } },
{ "type": "Feature", "properties": { "station_name": "Areuse Les Isles Littorail" }, "geometry": { "type": "Point", "coordinates": [ 6.84857606402374, 46.954221170485297 ] } },
{ "type": "Feature", "properties": { "station_name": "Areuse Littorail" }, "geometry": { "type": "Point", "coordinates": [ 6.85305865729212, 46.954497098200598 ] } },
{ "type": "Feature", "properties": { "station_name": "Argentière (Haute-Savoie)" }, "geometry": { "type": "Point", "coordinates": [ 6.92784340470548, 45.982179927114601 ] } },
{ "type": "Feature", "properties": { "station_name": "Arles" }, "geometry": { "type": "Point", "coordinates": [ 4.63243225779239, 43.685007084112897 ] } },
{ "type": "Feature", "properties": { "station_name": "Arnegg" }, "geometry": { "type": "Point", "coordinates": [ 9.25202759017292, 47.442002929058901 ] } },
{ "type": "Feature", "properties": { "station_name": "Arnex" }, "geometry": { "type": "Point", "coordinates": [ 6.51893028731735, 46.6982430577701 ] } },
{ "type": "Feature", "properties": { "station_name": "Arosa" }, "geometry": { "type": "Point", "coordinates": [ 9.67932922142953, 46.783290353324901 ] } },
{ "type": "Feature", "properties": { "station_name": "Arras" }, "geometry": { "type": "Point", "coordinates": [ 2.78183090702584, 50.286888984669297 ] } },
{ "type": "Feature", "properties": { "station_name": "Ars-sur-Moselle" }, "geometry": { "type": "Point", "coordinates": [ 6.07895342740005, 49.074759209001698 ] } },
{ "type": "Feature", "properties": { "station_name": "Arth am See (Schiff)" }, "geometry": { "type": "Point", "coordinates": [ 8.52232608478106, 47.064711259051201 ] } },
{ "type": "Feature", "properties": { "station_name": "Arth-Goldau" }, "geometry": { "type": "Point", "coordinates": [ 8.547496879045591, 47.049044134561797 ] } },
{ "type": "Feature", "properties": { "station_name": "Arvant" }, "geometry": { "type": "Point", "coordinates": [ 3.31067809801346, 45.365382051504099 ] } },
{ "type": "Feature", "properties": { "station_name": "Arveyes" }, "geometry": { "type": "Point", "coordinates": [ 7.06268951202343, 46.291251788691802 ] } },
{ "type": "Feature", "properties": { "station_name": "Arzier" }, "geometry": { "type": "Point", "coordinates": [ 6.21165256118865, 46.458641826539299 ] } },
{ "type": "Feature", "properties": { "station_name": "Ascona (lago)" }, "geometry": { "type": "Point", "coordinates": [ 8.768724984096499, 46.153792996324 ] } },
{ "type": "Feature", "properties": { "station_name": "Aspres-sur-Buech" }, "geometry": { "type": "Point", "coordinates": [ 5.75485025599745, 44.520107549743699 ] } },
{ "type": "Feature", "properties": { "station_name": "Assens" }, "geometry": { "type": "Point", "coordinates": [ 6.62052974596541, 46.613147986152597 ] } },
{ "type": "Feature", "properties": { "station_name": "Attiswil" }, "geometry": { "type": "Point", "coordinates": [ 7.61439882699507, 47.246583112929599 ] } },
{ "type": "Feature", "properties": { "station_name": "Au SG" }, "geometry": { "type": "Point", "coordinates": [ 9.641213703919041, 47.434863578121799 ] } },
{ "type": "Feature", "properties": { "station_name": "Au ZH" }, "geometry": { "type": "Point", "coordinates": [ 8.64104743274682, 47.247205122028703 ] } },
{ "type": "Feature", "properties": { "station_name": "Aubiat" }, "geometry": { "type": "Point", "coordinates": [ 3.1606145297804, 45.984008870821398 ] } },
{ "type": "Feature", "properties": { "station_name": "Auboué" }, "geometry": { "type": "Point", "coordinates": [ 5.9715149194044, 49.216176829592797 ] } },
{ "type": "Feature", "properties": { "station_name": "Aubrives" }, "geometry": { "type": "Point", "coordinates": [ 4.76085541082799, 50.1038771198563 ] } },
{ "type": "Feature", "properties": { "station_name": "Audun-le-Roman" }, "geometry": { "type": "Point", "coordinates": [ 5.89092705525481, 49.366522615545499 ] } },
{ "type": "Feature", "properties": { "station_name": "Auggen" }, "geometry": { "type": "Point", "coordinates": [ 7.58678461515739, 47.789950794712603 ] } },
{ "type": "Feature", "properties": { "station_name": "Aulendorf" }, "geometry": { "type": "Point", "coordinates": [ 9.64404339706441, 47.953052538294898 ] } },
{ "type": "Feature", "properties": { "station_name": "Aulnat Aéroport" }, "geometry": { "type": "Point", "coordinates": [ 3.16143199668907, 45.792053262981398 ] } },
{ "type": "Feature", "properties": { "station_name": "Aulnoye-Aymeries" }, "geometry": { "type": "Point", "coordinates": [ 3.84354075832165, 50.197195934249102 ] } },
{ "type": "Feature", "properties": { "station_name": "Aumont-Aubrac" }, "geometry": { "type": "Point", "coordinates": [ 3.28354897642927, 44.718165490072302 ] } },
{ "type": "Feature", "properties": { "station_name": "Auray" }, "geometry": { "type": "Point", "coordinates": [ -2.99947473409261, 47.680239560379 ] } },
{ "type": "Feature", "properties": { "station_name": "Aurec" }, "geometry": { "type": "Point", "coordinates": [ 4.19857292496079, 45.371080969119802 ] } },
{ "type": "Feature", "properties": { "station_name": "Aurillac" }, "geometry": { "type": "Point", "coordinates": [ 2.43590765736894, 44.920961106671797 ] } },
{ "type": "Feature", "properties": { "station_name": "Ausserberg" }, "geometry": { "type": "Point", "coordinates": [ 7.84439448922021, 46.312085710130198 ] } },
{ "type": "Feature", "properties": { "station_name": "Auvernier" }, "geometry": { "type": "Point", "coordinates": [ 6.87667536611491, 46.979606693746803 ] } },
{ "type": "Feature", "properties": { "station_name": "Auvernier (bateau)" }, "geometry": { "type": "Point", "coordinates": [ 6.88155321810835, 46.973839150351701 ] } },
{ "type": "Feature", "properties": { "station_name": "Auvernier Littorail" }, "geometry": { "type": "Point", "coordinates": [ 6.87889420486699, 46.974237566017898 ] } },
{ "type": "Feature", "properties": { "station_name": "Auxerre-Saint-Gervais" }, "geometry": { "type": "Point", "coordinates": [ 3.58536494562976, 47.797633209318199 ] } },
{ "type": "Feature", "properties": { "station_name": "Auxonne" }, "geometry": { "type": "Point", "coordinates": [ 5.37708172951408, 47.192592969393502 ] } },
{ "type": "Feature", "properties": { "station_name": "Avallon" }, "geometry": { "type": "Point", "coordinates": [ 3.91259425422153, 47.495860107086301 ] } },
{ "type": "Feature", "properties": { "station_name": "Avenay" }, "geometry": { "type": "Point", "coordinates": [ 4.04369438680418, 49.064783764077603 ] } },
{ "type": "Feature", "properties": { "station_name": "Avenches" }, "geometry": { "type": "Point", "coordinates": [ 7.04092333268618, 46.884599052381901 ] } },
{ "type": "Feature", "properties": { "station_name": "Avesnes" }, "geometry": { "type": "Point", "coordinates": [ 3.9331387247722, 50.126872598450497 ] } },
{ "type": "Feature", "properties": { "station_name": "Avignon Centre" }, "geometry": { "type": "Point", "coordinates": [ 4.80632813051645, 43.941166031308903 ] } },
{ "type": "Feature", "properties": { "station_name": "Avignon TGV" }, "geometry": { "type": "Point", "coordinates": [ 4.78604417139821, 43.921939005852302 ] } },
{ "type": "Feature", "properties": { "station_name": "Avord" }, "geometry": { "type": "Point", "coordinates": [ 2.6523836745662, 47.0349091742223 ] } },
{ "type": "Feature", "properties": { "station_name": "Avoudrey" }, "geometry": { "type": "Point", "coordinates": [ 6.43455153266826, 47.129741753296102 ] } },
{ "type": "Feature", "properties": { "station_name": "Ay (F)" }, "geometry": { "type": "Point", "coordinates": [ 4.00159933258448, 49.048730570562903 ] } },
{ "type": "Feature", "properties": { "station_name": "Azerailles" }, "geometry": { "type": "Point", "coordinates": [ 6.69658111792956, 48.490976473797701 ] } },
{ "type": "Feature", "properties": { "station_name": "Aéroport Charles-de-Gaulle TGV" }, "geometry": { "type": "Point", "coordinates": [ 2.57113105710628, 49.004046338452298 ] } },
{ "type": "Feature", "properties": { "station_name": "Baar" }, "geometry": { "type": "Point", "coordinates": [ 8.52357474302616, 47.195675590308397 ] } },
{ "type": "Feature", "properties": { "station_name": "Baar Lindenpark" }, "geometry": { "type": "Point", "coordinates": [ 8.5171068729796, 47.183808043724 ] } },
{ "type": "Feature", "properties": { "station_name": "Baar Neufeld" }, "geometry": { "type": "Point", "coordinates": [ 8.517825525206989, 47.189131674696199 ] } },
{ "type": "Feature", "properties": { "station_name": "Baccarat" }, "geometry": { "type": "Point", "coordinates": [ 6.74414691223031, 48.452395184584802 ] } },
{ "type": "Feature", "properties": { "station_name": "Bad Bellingen" }, "geometry": { "type": "Point", "coordinates": [ 7.55759835157229, 47.730801056314398 ] } },
{ "type": "Feature", "properties": { "station_name": "Bad Krozingen" }, "geometry": { "type": "Point", "coordinates": [ 7.69762773808033, 47.919723136173303 ] } },
{ "type": "Feature", "properties": { "station_name": "Bad Niedernau" }, "geometry": { "type": "Point", "coordinates": [ 8.896537282738819, 48.460765491776201 ] } },
{ "type": "Feature", "properties": { "station_name": "Bad Ragaz" }, "geometry": { "type": "Point", "coordinates": [ 9.50175025604007, 47.011375252313201 ] } },
{ "type": "Feature", "properties": { "station_name": "Bad Saulgau" }, "geometry": { "type": "Point", "coordinates": [ 9.50108550272973, 48.013595867102602 ] } },
{ "type": "Feature", "properties": { "station_name": "Bad Schussenried" }, "geometry": { "type": "Point", "coordinates": [ 9.668495539101549, 47.994031826228401 ] } },
{ "type": "Feature", "properties": { "station_name": "Bad Säckingen" }, "geometry": { "type": "Point", "coordinates": [ 7.94862601165111, 47.555858313254298 ] } },
{ "type": "Feature", "properties": { "station_name": "Bad Zurzach" }, "geometry": { "type": "Point", "coordinates": [ 8.29692081365841, 47.587313087740903 ] } },
{ "type": "Feature", "properties": { "station_name": "Baden" }, "geometry": { "type": "Point", "coordinates": [ 8.30669448395099, 47.474424651721101 ] } },
{ "type": "Feature", "properties": { "station_name": "Baden-Baden" }, "geometry": { "type": "Point", "coordinates": [ 8.189554170885501, 48.7899726795833 ] } },
{ "type": "Feature", "properties": { "station_name": "Baden-Baden Rebland" }, "geometry": { "type": "Point", "coordinates": [ 8.1465697845344, 48.733841836477701 ] } },
{ "type": "Feature", "properties": { "station_name": "Bagnac" }, "geometry": { "type": "Point", "coordinates": [ 2.15985537052058, 44.665179703603499 ] } },
{ "type": "Feature", "properties": { "station_name": "Bains-les-Bains" }, "geometry": { "type": "Point", "coordinates": [ 6.29531266361035, 47.981189455464801 ] } },
{ "type": "Feature", "properties": { "station_name": "Balbigny" }, "geometry": { "type": "Point", "coordinates": [ 4.18764042795153, 45.817809634767897 ] } },
{ "type": "Feature", "properties": { "station_name": "Baldegg" }, "geometry": { "type": "Point", "coordinates": [ 8.28044571134537, 47.1852733165098 ] } },
{ "type": "Feature", "properties": { "station_name": "Baldegg Kloster" }, "geometry": { "type": "Point", "coordinates": [ 8.28075113854201, 47.180291224022199 ] } },
{ "type": "Feature", "properties": { "station_name": "Balerna" }, "geometry": { "type": "Point", "coordinates": [ 9.003598498315091, 45.847596518291098 ] } },
{ "type": "Feature", "properties": { "station_name": "Balingen (Württ)" }, "geometry": { "type": "Point", "coordinates": [ 8.850309978211589, 48.278470066774901 ] } },
{ "type": "Feature", "properties": { "station_name": "Ballens" }, "geometry": { "type": "Point", "coordinates": [ 6.37446322330514, 46.552258210109301 ] } },
{ "type": "Feature", "properties": { "station_name": "Ballens-Froideville" }, "geometry": { "type": "Point", "coordinates": [ 6.39022865654363, 46.549657357750299 ] } },
{ "type": "Feature", "properties": { "station_name": "Ballwil" }, "geometry": { "type": "Point", "coordinates": [ 8.31706104233117, 47.153339526537401 ] } },
{ "type": "Feature", "properties": { "station_name": "Balsthal" }, "geometry": { "type": "Point", "coordinates": [ 7.6939176959564, 47.3128895898625 ] } },
{ "type": "Feature", "properties": { "station_name": "Banassac-la-Canourgue" }, "geometry": { "type": "Point", "coordinates": [ 3.19613391611943, 44.447583174876101 ] } },
{ "type": "Feature", "properties": { "station_name": "Bannwil" }, "geometry": { "type": "Point", "coordinates": [ 7.74036059615185, 47.244381629898001 ] } },
{ "type": "Feature", "properties": { "station_name": "Bar-le-Duc" }, "geometry": { "type": "Point", "coordinates": [ 5.16726222857308, 48.773611856963903 ] } },
{ "type": "Feature", "properties": { "station_name": "Bar-sur-Aube" }, "geometry": { "type": "Point", "coordinates": [ 4.70713615683017, 48.2385248223028 ] } },
{ "type": "Feature", "properties": { "station_name": "Bargen BE" }, "geometry": { "type": "Point", "coordinates": [ 7.2611363414659, 47.040174257137899 ] } },
{ "type": "Feature", "properties": { "station_name": "Baroncourt" }, "geometry": { "type": "Point", "coordinates": [ 5.69957691655788, 49.284671748210101 ] } },
{ "type": "Feature", "properties": { "station_name": "Barr" }, "geometry": { "type": "Point", "coordinates": [ 7.45693314081984, 48.403319233163003 ] } },
{ "type": "Feature", "properties": { "station_name": "Bartenheim" }, "geometry": { "type": "Point", "coordinates": [ 7.4872512816631, 47.635107535170903 ] } },
{ "type": "Feature", "properties": { "station_name": "Bas - Monistrol" }, "geometry": { "type": "Point", "coordinates": [ 4.13949072871602, 45.297620068476299 ] } },
{ "type": "Feature", "properties": { "station_name": "Bas Évette" }, "geometry": { "type": "Point", "coordinates": [ 6.80681338645921, 47.680965323179301 ] } },
{ "type": "Feature", "properties": { "station_name": "Basel Bad Bf" }, "geometry": { "type": "Point", "coordinates": [ 7.60691586067732, 47.5673090682292 ] } },
{ "type": "Feature", "properties": { "station_name": "Basel Dreispitz" }, "geometry": { "type": "Point", "coordinates": [ 7.61050912181429, 47.536673146268598 ] } },
{ "type": "Feature", "properties": { "station_name": "Basel SBB" }, "geometry": { "type": "Point", "coordinates": [ 7.59341418195512, 47.546102890595797 ] } },
{ "type": "Feature", "properties": { "station_name": "Basel St. Jakob" }, "geometry": { "type": "Point", "coordinates": [ 7.61952820726811, 47.5426101412747 ] } },
{ "type": "Feature", "properties": { "station_name": "Basel St. Johann" }, "geometry": { "type": "Point", "coordinates": [ 7.57165698577072, 47.57103653998 ] } },
{ "type": "Feature", "properties": { "station_name": "Bassecourt" }, "geometry": { "type": "Point", "coordinates": [ 7.24909891665702, 47.336576427772201 ] } },
{ "type": "Feature", "properties": { "station_name": "Bassersdorf" }, "geometry": { "type": "Point", "coordinates": [ 8.62421300432008, 47.438715909939603 ] } },
{ "type": "Feature", "properties": { "station_name": "Bassins" }, "geometry": { "type": "Point", "coordinates": [ 6.22230658045979, 46.460572540767799 ] } },
{ "type": "Feature", "properties": { "station_name": "Bauen (See)" }, "geometry": { "type": "Point", "coordinates": [ 8.580456066824519, 46.935190990066701 ] } },
{ "type": "Feature", "properties": { "station_name": "Baulmes" }, "geometry": { "type": "Point", "coordinates": [ 6.52425729695292, 46.788770883343801 ] } },
{ "type": "Feature", "properties": { "station_name": "Bauma" }, "geometry": { "type": "Point", "coordinates": [ 8.879837601604709, 47.368704124584198 ] } },
{ "type": "Feature", "properties": { "station_name": "Baume-les-Dames" }, "geometry": { "type": "Point", "coordinates": [ 6.35944339175257, 47.354027255054902 ] } },
{ "type": "Feature", "properties": { "station_name": "Bavois" }, "geometry": { "type": "Point", "coordinates": [ 6.55915684574582, 46.687102799895101 ] } },
{ "type": "Feature", "properties": { "station_name": "Bayon" }, "geometry": { "type": "Point", "coordinates": [ 6.32315145426909, 48.468109969619 ] } },
{ "type": "Feature", "properties": { "station_name": "Bazancourt" }, "geometry": { "type": "Point", "coordinates": [ 4.17413874922934, 49.361093526498003 ] } },
{ "type": "Feature", "properties": { "station_name": "Bazenheid" }, "geometry": { "type": "Point", "coordinates": [ 9.06919348037062, 47.410169147363902 ] } },
{ "type": "Feature", "properties": { "station_name": "Beatenbucht (See)" }, "geometry": { "type": "Point", "coordinates": [ 7.74601998244259, 46.686603652701898 ] } },
{ "type": "Feature", "properties": { "station_name": "Beatushöhlen-Sundlauenen" }, "geometry": { "type": "Point", "coordinates": [ 7.78992065038362, 46.685001420671 ] } },
{ "type": "Feature", "properties": { "station_name": "Beaune" }, "geometry": { "type": "Point", "coordinates": [ 4.8488364097669, 47.023005723458603 ] } },
{ "type": "Feature", "properties": { "station_name": "Beckenried (See)" }, "geometry": { "type": "Point", "coordinates": [ 8.4756047068475, 46.9669736757386 ] } },
{ "type": "Feature", "properties": { "station_name": "Beckenried Niederdorf (Fähre)" }, "geometry": { "type": "Point", "coordinates": [ 8.459444014883941, 46.972073826764998 ] } },
{ "type": "Feature", "properties": { "station_name": "Bei den Weihern" }, "geometry": { "type": "Point", "coordinates": [ 7.56659048756758, 47.228389165468499 ] } },
{ "type": "Feature", "properties": { "station_name": "Beinwil am See" }, "geometry": { "type": "Point", "coordinates": [ 8.20237312999167, 47.267270143066902 ] } },
{ "type": "Feature", "properties": { "station_name": "Beinwil am See (See)" }, "geometry": { "type": "Point", "coordinates": [ 8.211464080668231, 47.269324381817803 ] } },
{ "type": "Feature", "properties": { "station_name": "Bel-Air LEB" }, "geometry": { "type": "Point", "coordinates": [ 6.60552788071853, 46.578679756187199 ] } },
{ "type": "Feature", "properties": { "station_name": "Belfaux CFF" }, "geometry": { "type": "Point", "coordinates": [ 7.10559304999895, 46.816890569215403 ] } },
{ "type": "Feature", "properties": { "station_name": "Belfaux-Village" }, "geometry": { "type": "Point", "coordinates": [ 7.11100989116295, 46.8232528144691 ] } },
{ "type": "Feature", "properties": { "station_name": "Belfort" }, "geometry": { "type": "Point", "coordinates": [ 6.85362459592119, 47.633364156970202 ] } },
{ "type": "Feature", "properties": { "station_name": "Belfort-Montbéliard TGV" }, "geometry": { "type": "Point", "coordinates": [ 6.89763306169633, 47.585937715229001 ] } },
{ "type": "Feature", "properties": { "station_name": "Bellach" }, "geometry": { "type": "Point", "coordinates": [ 7.50886474740202, 47.208846436029603 ] } },
{ "type": "Feature", "properties": { "station_name": "Bellegarde-sur-Valserine" }, "geometry": { "type": "Point", "coordinates": [ 5.82596089389825, 46.110919508113099 ] } },
{ "type": "Feature", "properties": { "station_name": "Bellenaves" }, "geometry": { "type": "Point", "coordinates": [ 3.06644413853305, 46.198989685037603 ] } },
{ "type": "Feature", "properties": { "station_name": "Belleville" }, "geometry": { "type": "Point", "coordinates": [ 6.10111486546236, 48.8196796194187 ] } },
{ "type": "Feature", "properties": { "station_name": "Belleville sur Sâone" }, "geometry": { "type": "Point", "coordinates": [ 4.72863284158214, 46.111479998343498 ] } },
{ "type": "Feature", "properties": { "station_name": "Bellevue GE (lac)" }, "geometry": { "type": "Point", "coordinates": [ 6.15603786194107, 46.2551631148011 ] } },
{ "type": "Feature", "properties": { "station_name": "Bellignat" }, "geometry": { "type": "Point", "coordinates": [ 5.62987663365334, 46.238128858635598 ] } },
{ "type": "Feature", "properties": { "station_name": "Bellinzona" }, "geometry": { "type": "Point", "coordinates": [ 9.03095219872033, 46.1961232310966 ] } },
{ "type": "Feature", "properties": { "station_name": "Belmont-sur-Montreux" }, "geometry": { "type": "Point", "coordinates": [ 6.90612214113244, 46.442042286249396 ] } },
{ "type": "Feature", "properties": { "station_name": "Belp" }, "geometry": { "type": "Point", "coordinates": [ 7.49851615532752, 46.888878263471803 ] } },
{ "type": "Feature", "properties": { "station_name": "Belp Steinbach" }, "geometry": { "type": "Point", "coordinates": [ 7.49318914569195, 46.895133769775398 ] } },
{ "type": "Feature", "properties": { "station_name": "Bendlehn" }, "geometry": { "type": "Point", "coordinates": [ 9.450510352226759, 47.4069591756747 ] } },
{ "type": "Feature", "properties": { "station_name": "Benfeld" }, "geometry": { "type": "Point", "coordinates": [ 7.5838022084137, 48.373670702216302 ] } },
{ "type": "Feature", "properties": { "station_name": "Bengy" }, "geometry": { "type": "Point", "coordinates": [ 2.74941969157029, 47.000465172952197 ] } },
{ "type": "Feature", "properties": { "station_name": "Benken SG" }, "geometry": { "type": "Point", "coordinates": [ 9.00941059820415, 47.203707875965101 ] } },
{ "type": "Feature", "properties": { "station_name": "Benzenschwil" }, "geometry": { "type": "Point", "coordinates": [ 8.36466276924329, 47.247589300470302 ] } },
{ "type": "Feature", "properties": { "station_name": "Bercher" }, "geometry": { "type": "Point", "coordinates": [ 6.70365085921656, 46.692882711671601 ] } },
{ "type": "Feature", "properties": { "station_name": "Berg" }, "geometry": { "type": "Point", "coordinates": [ 9.174601795823881, 47.582132531618598 ] } },
{ "type": "Feature", "properties": { "station_name": "Bergenweiler" }, "geometry": { "type": "Point", "coordinates": [ 10.272882062341299, 48.576295299793898 ] } },
{ "type": "Feature", "properties": { "station_name": "Bergfrieden" }, "geometry": { "type": "Point", "coordinates": [ 8.398960446795749, 47.397467944765999 ] } },
{ "type": "Feature", "properties": { "station_name": "Bergün/Bravuogn" }, "geometry": { "type": "Point", "coordinates": [ 9.74674778351209, 46.631070944181403 ] } },
{ "type": "Feature", "properties": { "station_name": "Berikon-Widen" }, "geometry": { "type": "Point", "coordinates": [ 8.36679177646695, 47.362181575537399 ] } },
{ "type": "Feature", "properties": { "station_name": "Beringen Bad Bf" }, "geometry": { "type": "Point", "coordinates": [ 8.57461701747693, 47.694898011095901 ] } },
{ "type": "Feature", "properties": { "station_name": "Beringerfeld" }, "geometry": { "type": "Point", "coordinates": [ 8.59217908128392, 47.695369625502899 ] } },
{ "type": "Feature", "properties": { "station_name": "Berlin Hbf" }, "geometry": { "type": "Point", "coordinates": [ 13.3695455270363, 52.525592564862997 ] } },
{ "type": "Feature", "properties": { "station_name": "Berlin Ostbahnhof" }, "geometry": { "type": "Point", "coordinates": [ 13.434565587309899, 52.510975618963798 ] } },
{ "type": "Feature", "properties": { "station_name": "Berlingen" }, "geometry": { "type": "Point", "coordinates": [ 9.02140310724881, 47.673398749971803 ] } },
{ "type": "Feature", "properties": { "station_name": "Berlingen (See)" }, "geometry": { "type": "Point", "coordinates": [ 9.01766611566635, 47.675340397393398 ] } },
{ "type": "Feature", "properties": { "station_name": "Bermatingen-Ahausen" }, "geometry": { "type": "Point", "coordinates": [ 9.345155935690549, 47.730486860883303 ] } },
{ "type": "Feature", "properties": { "station_name": "Bern" }, "geometry": { "type": "Point", "coordinates": [ 7.43823919975471, 46.948438624628103 ] } },
{ "type": "Feature", "properties": { "station_name": "Bern  Europaplatz" }, "geometry": { "type": "Point", "coordinates": [ 7.40715749091985, 46.943826857148302 ] } },
{ "type": "Feature", "properties": { "station_name": "Bern Brünnen Westside" }, "geometry": { "type": "Point", "coordinates": [ 7.37524034887064, 46.944072173934003 ] } },
{ "type": "Feature", "properties": { "station_name": "Bern Bümpliz Nord" }, "geometry": { "type": "Point", "coordinates": [ 7.38982000593393, 46.946028535069502 ] } },
{ "type": "Feature", "properties": { "station_name": "Bern Bümpliz Süd" }, "geometry": { "type": "Point", "coordinates": [ 7.39406903722841, 46.936693780104299 ] } },
{ "type": "Feature", "properties": { "station_name": "Bern Europaplatz" }, "geometry": { "type": "Point", "coordinates": [ 7.4050733994604, 46.943599938120599 ] } },
{ "type": "Feature", "properties": { "station_name": "Bern Felsenau" }, "geometry": { "type": "Point", "coordinates": [ 7.44424892900631, 46.968500094046703 ] } },
{ "type": "Feature", "properties": { "station_name": "Bern Stöckacker" }, "geometry": { "type": "Point", "coordinates": [ 7.40096809861141, 46.946371964129902 ] } },
{ "type": "Feature", "properties": { "station_name": "Bern Tiefenau" }, "geometry": { "type": "Point", "coordinates": [ 7.45019577618801, 46.972741959559499 ] } },
{ "type": "Feature", "properties": { "station_name": "Bern Wankdorf" }, "geometry": { "type": "Point", "coordinates": [ 7.46600612519071, 46.966752985150201 ] } },
{ "type": "Feature", "properties": { "station_name": "Bern Weissenbühl" }, "geometry": { "type": "Point", "coordinates": [ 7.42967825509586, 46.935877985031198 ] } },
{ "type": "Feature", "properties": { "station_name": "Bernina Diavolezza" }, "geometry": { "type": "Point", "coordinates": [ 9.98228605104101, 46.441788488170502 ] } },
{ "type": "Feature", "properties": { "station_name": "Bernina Lagalb" }, "geometry": { "type": "Point", "coordinates": [ 9.99153869846873, 46.436328448092397 ] } },
{ "type": "Feature", "properties": { "station_name": "Bernina Suot" }, "geometry": { "type": "Point", "coordinates": [ 9.96938624355926, 46.444852556679599 ] } },
{ "type": "Feature", "properties": { "station_name": "Berthelming" }, "geometry": { "type": "Point", "coordinates": [ 7.00898822433129, 48.809777289385401 ] } },
{ "type": "Feature", "properties": { "station_name": "Bertrichamps" }, "geometry": { "type": "Point", "coordinates": [ 6.79129049834746, 48.428331060043298 ] } },
{ "type": "Feature", "properties": { "station_name": "Besançon Franche-Comté TGV" }, "geometry": { "type": "Point", "coordinates": [ 5.95267724789379, 47.307560110363397 ] } },
{ "type": "Feature", "properties": { "station_name": "Besançon Mouillère" }, "geometry": { "type": "Point", "coordinates": [ 6.03403766318782, 47.240490696542402 ] } },
{ "type": "Feature", "properties": { "station_name": "Besançon Viotte" }, "geometry": { "type": "Point", "coordinates": [ 6.02200023837894, 47.247327083740601 ] } },
{ "type": "Feature", "properties": { "station_name": "Besnate" }, "geometry": { "type": "Point", "coordinates": [ 8.760577264468401, 45.696156092717999 ] } },
{ "type": "Feature", "properties": { "station_name": "Besozzo" }, "geometry": { "type": "Point", "coordinates": [ 8.66326276972619, 45.842565350342802 ] } },
{ "type": "Feature", "properties": { "station_name": "Bessay" }, "geometry": { "type": "Point", "coordinates": [ 3.36083104033283, 46.443416489461598 ] } },
{ "type": "Feature", "properties": { "station_name": "Betlis" }, "geometry": { "type": "Point", "coordinates": [ 9.146026386632061, 47.1344047018748 ] } },
{ "type": "Feature", "properties": { "station_name": "Betten Talstation" }, "geometry": { "type": "Point", "coordinates": [ 8.07651915866901, 46.371155779002102 ] } },
{ "type": "Feature", "properties": { "station_name": "Bettlach" }, "geometry": { "type": "Point", "coordinates": [ 7.42964232248449, 47.195052976356799 ] } },
{ "type": "Feature", "properties": { "station_name": "Bettwiesen" }, "geometry": { "type": "Point", "coordinates": [ 9.020810219161209, 47.4976202060882 ] } },
{ "type": "Feature", "properties": { "station_name": "Beuggen" }, "geometry": { "type": "Point", "coordinates": [ 7.81091427857642, 47.581908332236097 ] } },
{ "type": "Feature", "properties": { "station_name": "Beuron" }, "geometry": { "type": "Point", "coordinates": [ 8.97188796878125, 48.048792442823697 ] } },
{ "type": "Feature", "properties": { "station_name": "Bevaix" }, "geometry": { "type": "Point", "coordinates": [ 6.81158344061854, 46.929639502061598 ] } },
{ "type": "Feature", "properties": { "station_name": "Bevaix (bateau)" }, "geometry": { "type": "Point", "coordinates": [ 6.82233627457095, 46.922124140317898 ] } },
{ "type": "Feature", "properties": { "station_name": "Bever" }, "geometry": { "type": "Point", "coordinates": [ 9.888466002754511, 46.549910652887803 ] } },
{ "type": "Feature", "properties": { "station_name": "Bex" }, "geometry": { "type": "Point", "coordinates": [ 7.00039134706107, 46.251920677184003 ] } },
{ "type": "Feature", "properties": { "station_name": "Bex Pont-Neuf" }, "geometry": { "type": "Point", "coordinates": [ 7.02081903662479, 46.250523015638997 ] } },
{ "type": "Feature", "properties": { "station_name": "Bex-Place-du-Marché" }, "geometry": { "type": "Point", "coordinates": [ 7.01443201495381, 46.250908152597603 ] } },
{ "type": "Feature", "properties": { "station_name": "Beynost" }, "geometry": { "type": "Point", "coordinates": [ 5.00759566995145, 45.833972515264897 ] } },
{ "type": "Feature", "properties": { "station_name": "Biasca" }, "geometry": { "type": "Point", "coordinates": [ 8.97489732498347, 46.350517967147198 ] } },
{ "type": "Feature", "properties": { "station_name": "Bibenlos-Sonnenhof" }, "geometry": { "type": "Point", "coordinates": [ 8.350271758389701, 47.3537899089443 ] } },
{ "type": "Feature", "properties": { "station_name": "Biberach (Riss)" }, "geometry": { "type": "Point", "coordinates": [ 9.79312780163764, 48.1018451889666 ] } },
{ "type": "Feature", "properties": { "station_name": "Biberach (Riss) Süd" }, "geometry": { "type": "Point", "coordinates": [ 9.803233848585389, 48.0870194569086 ] } },
{ "type": "Feature", "properties": { "station_name": "Biberbrugg" }, "geometry": { "type": "Point", "coordinates": [ 8.72269530893181, 47.156369449994699 ] } },
{ "type": "Feature", "properties": { "station_name": "Biberegg" }, "geometry": { "type": "Point", "coordinates": [ 8.669443178881791, 47.093609915424501 ] } },
{ "type": "Feature", "properties": { "station_name": "Biberist Ost" }, "geometry": { "type": "Point", "coordinates": [ 7.56623116145388, 47.180541560903499 ] } },
{ "type": "Feature", "properties": { "station_name": "Biberist RBS" }, "geometry": { "type": "Point", "coordinates": [ 7.55582867046233, 47.1838629921834 ] } },
{ "type": "Feature", "properties": { "station_name": "Biel (Goms)" }, "geometry": { "type": "Point", "coordinates": [ 8.219432137239471, 46.455058685067698 ] } },
{ "type": "Feature", "properties": { "station_name": "Biel Mett" }, "geometry": { "type": "Point", "coordinates": [ 7.2733264798731, 47.145354606470001 ] } },
{ "type": "Feature", "properties": { "station_name": "Biel/Bienne" }, "geometry": { "type": "Point", "coordinates": [ 7.24445462663748, 47.131892994003003 ] } },
{ "type": "Feature", "properties": { "station_name": "Biel/Bienne (Schiff/bateau)" }, "geometry": { "type": "Point", "coordinates": [ 7.23528282758534, 47.131208517761998 ] } },
{ "type": "Feature", "properties": { "station_name": "Biel/Bienne Bözingenfeld/Champ" }, "geometry": { "type": "Point", "coordinates": [ 7.29546995162972, 47.158818919077099 ] } },
{ "type": "Feature", "properties": { "station_name": "Bieringen(b Horb)" }, "geometry": { "type": "Point", "coordinates": [ 8.860919081718521, 48.449028800098397 ] } },
{ "type": "Feature", "properties": { "station_name": "Bietingen" }, "geometry": { "type": "Point", "coordinates": [ 8.738918882965271, 47.744019715438299 ] } },
{ "type": "Feature", "properties": { "station_name": "Bigenthal" }, "geometry": { "type": "Point", "coordinates": [ 7.62337299668468, 46.965398170197702 ] } },
{ "type": "Feature", "properties": { "station_name": "Biglen" }, "geometry": { "type": "Point", "coordinates": [ 7.62670574638922, 46.9246150627406 ] } },
{ "type": "Feature", "properties": { "station_name": "Bilten" }, "geometry": { "type": "Point", "coordinates": [ 9.02875132627393, 47.153089061424403 ] } },
{ "type": "Feature", "properties": { "station_name": "Binzenhof" }, "geometry": { "type": "Point", "coordinates": [ 8.05057581326002, 47.383182274059301 ] } },
{ "type": "Feature", "properties": { "station_name": "Bioggio" }, "geometry": { "type": "Point", "coordinates": [ 8.90888911789718, 46.012109576643198 ] } },
{ "type": "Feature", "properties": { "station_name": "Bioggio Molinazzo" }, "geometry": { "type": "Point", "coordinates": [ 8.914009515017369, 46.012359130337501 ] } },
{ "type": "Feature", "properties": { "station_name": "Birmensdorf ZH" }, "geometry": { "type": "Point", "coordinates": [ 8.435225434820699, 47.358299302503902 ] } },
{ "type": "Feature", "properties": { "station_name": "Birr" }, "geometry": { "type": "Point", "coordinates": [ 8.21742889415561, 47.4367533218742 ] } },
{ "type": "Feature", "properties": { "station_name": "Birrwil" }, "geometry": { "type": "Point", "coordinates": [ 8.199049363439959, 47.288010025316801 ] } },
{ "type": "Feature", "properties": { "station_name": "Birrwil (See)" }, "geometry": { "type": "Point", "coordinates": [ 8.202876186550849, 47.290910401034402 ] } },
{ "type": "Feature", "properties": { "station_name": "Bischheim" }, "geometry": { "type": "Point", "coordinates": [ 7.7417889174538, 48.611919683485503 ] } },
{ "type": "Feature", "properties": { "station_name": "Bischoffsheim" }, "geometry": { "type": "Point", "coordinates": [ 7.49794123354561, 48.487023211184898 ] } },
{ "type": "Feature", "properties": { "station_name": "Bischofszell Nord" }, "geometry": { "type": "Point", "coordinates": [ 9.23398043611245, 47.500581894682298 ] } },
{ "type": "Feature", "properties": { "station_name": "Bischofszell Stadt" }, "geometry": { "type": "Point", "coordinates": [ 9.24183171169674, 47.492242614944502 ] } },
{ "type": "Feature", "properties": { "station_name": "Bischwiller" }, "geometry": { "type": "Point", "coordinates": [ 7.85127558429752, 48.7655182633629 ] } },
{ "type": "Feature", "properties": { "station_name": "Bisingen" }, "geometry": { "type": "Point", "coordinates": [ 8.921034340540171, 48.312768502616898 ] } },
{ "type": "Feature", "properties": { "station_name": "Bissone (lago)" }, "geometry": { "type": "Point", "coordinates": [ 8.96428822147654, 45.949823232189097 ] } },
{ "type": "Feature", "properties": { "station_name": "Bitsch" }, "geometry": { "type": "Point", "coordinates": [ 8.01722136675602, 46.336062518931101 ] } },
{ "type": "Feature", "properties": { "station_name": "Bitschwiller-lès-Thann" }, "geometry": { "type": "Point", "coordinates": [ 7.07832019796929, 47.827724295620399 ] } },
{ "type": "Feature", "properties": { "station_name": "Bitschwiller-lès-Thann Mairie" }, "geometry": { "type": "Point", "coordinates": [ 7.07337946390594, 47.829418964315103 ] } },
{ "type": "Feature", "properties": { "station_name": "Bière" }, "geometry": { "type": "Point", "coordinates": [ 6.33691364442372, 46.537442187062901 ] } },
{ "type": "Feature", "properties": { "station_name": "Blainville - Damelevières" }, "geometry": { "type": "Point", "coordinates": [ 6.38584487795652, 48.565031201972602 ] } },
{ "type": "Feature", "properties": { "station_name": "Blaisy-Bas" }, "geometry": { "type": "Point", "coordinates": [ 4.74106552511608, 47.373443418704397 ] } },
{ "type": "Feature", "properties": { "station_name": "Blankenburg" }, "geometry": { "type": "Point", "coordinates": [ 7.38531944635987, 46.541100230046801 ] } },
{ "type": "Feature", "properties": { "station_name": "Blanzy" }, "geometry": { "type": "Point", "coordinates": [ 4.39097409254029, 46.6939425004553 ] } },
{ "type": "Feature", "properties": { "station_name": "Blaubeuren" }, "geometry": { "type": "Point", "coordinates": [ 9.791977958073799, 48.403814222956797 ] } },
{ "type": "Feature", "properties": { "station_name": "Blaustein" }, "geometry": { "type": "Point", "coordinates": [ 9.91932313276831, 48.414595455911297 ] } },
{ "type": "Feature", "properties": { "station_name": "Bleien Liebegg" }, "geometry": { "type": "Point", "coordinates": [ 8.11353873153273, 47.343522146409299 ] } },
{ "type": "Feature", "properties": { "station_name": "Blitzingen" }, "geometry": { "type": "Point", "coordinates": [ 8.204969261163139, 46.444666860463499 ] } },
{ "type": "Feature", "properties": { "station_name": "Blonay" }, "geometry": { "type": "Point", "coordinates": [ 6.89594422896195, 46.465689839873598 ] } },
{ "type": "Feature", "properties": { "station_name": "Bludenz" }, "geometry": { "type": "Point", "coordinates": [ 9.81456160431971, 47.1547262266564 ] } },
{ "type": "Feature", "properties": { "station_name": "Blumenau" }, "geometry": { "type": "Point", "coordinates": [ 8.8423958205574, 47.223691758294102 ] } },
{ "type": "Feature", "properties": { "station_name": "Bléré-la-Croix" }, "geometry": { "type": "Point", "coordinates": [ 0.987778503402484, 47.3379461641604 ] } },
{ "type": "Feature", "properties": { "station_name": "Boden" }, "geometry": { "type": "Point", "coordinates": [ 7.43538255715082, 46.4707695364824 ] } },
{ "type": "Feature", "properties": { "station_name": "Bodio TI" }, "geometry": { "type": "Point", "coordinates": [ 8.905897728000649, 46.380638250576901 ] } },
{ "type": "Feature", "properties": { "station_name": "Bogny-sur-Meuse" }, "geometry": { "type": "Point", "coordinates": [ 4.7633976430824, 49.858346535541997 ] } },
{ "type": "Feature", "properties": { "station_name": "Bois d'Oingt" }, "geometry": { "type": "Point", "coordinates": [ 4.56861593999965, 45.9134790462155 ] } },
{ "type": "Feature", "properties": { "station_name": "Bois-d'Oingt - Légny" }, "geometry": { "type": "Point", "coordinates": [ 4.57515567526895, 45.906553643844703 ] } },
{ "type": "Feature", "properties": { "station_name": "Bois-de-Chexbres" }, "geometry": { "type": "Point", "coordinates": [ 6.90153175002995, 46.4732813671814 ] } },
{ "type": "Feature", "properties": { "station_name": "Bois-le-Roi" }, "geometry": { "type": "Point", "coordinates": [ 2.69206226067128, 48.475411697577599 ] } },
{ "type": "Feature", "properties": { "station_name": "Boisset" }, "geometry": { "type": "Point", "coordinates": [ 2.24937248859556, 44.785590376907301 ] } },
{ "type": "Feature", "properties": { "station_name": "Boll-Utzigen" }, "geometry": { "type": "Point", "coordinates": [ 7.54728569210916, 46.953607992691097 ] } },
{ "type": "Feature", "properties": { "station_name": "Bollement" }, "geometry": { "type": "Point", "coordinates": [ 7.12386478288048, 47.296923908579998 ] } },
{ "type": "Feature", "properties": { "station_name": "Bolligen" }, "geometry": { "type": "Point", "coordinates": [ 7.49742021068075, 46.9695422020066 ] } },
{ "type": "Feature", "properties": { "station_name": "Bollwiller" }, "geometry": { "type": "Point", "coordinates": [ 7.26757726205393, 47.857020399038397 ] } },
{ "type": "Feature", "properties": { "station_name": "Bollène-la-Croisière" }, "geometry": { "type": "Point", "coordinates": [ 4.70788175851609, 44.2718536737611 ] } },
{ "type": "Feature", "properties": { "station_name": "Bologna Centrale" }, "geometry": { "type": "Point", "coordinates": [ 11.343413369728401, 44.506142916162503 ] } },
{ "type": "Feature", "properties": { "station_name": "Bologne" }, "geometry": { "type": "Point", "coordinates": [ 5.1340604956674, 48.198560339480899 ] } },
{ "type": "Feature", "properties": { "station_name": "Boltigen" }, "geometry": { "type": "Point", "coordinates": [ 7.39007153421352, 46.6273696145917 ] } },
{ "type": "Feature", "properties": { "station_name": "Bonaduz" }, "geometry": { "type": "Point", "coordinates": [ 9.397761278735921, 46.810287791241301 ] } },
{ "type": "Feature", "properties": { "station_name": "Boncourt" }, "geometry": { "type": "Point", "coordinates": [ 7.01663288740021, 47.491805585600098 ] } },
{ "type": "Feature", "properties": { "station_name": "Bonfol" }, "geometry": { "type": "Point", "coordinates": [ 7.15482971072839, 47.474618951709402 ] } },
{ "type": "Feature", "properties": { "station_name": "Boniswil" }, "geometry": { "type": "Point", "coordinates": [ 8.18481106618469, 47.314686264673597 ] } },
{ "type": "Feature", "properties": { "station_name": "Boniswil (See)" }, "geometry": { "type": "Point", "coordinates": [ 8.19851935742226, 47.304508360726302 ] } },
{ "type": "Feature", "properties": { "station_name": "Bonn Hbf" }, "geometry": { "type": "Point", "coordinates": [ 7.09713990317421, 50.732006584384003 ] } },
{ "type": "Feature", "properties": { "station_name": "Bonneville" }, "geometry": { "type": "Point", "coordinates": [ 6.4164864123021, 46.0777407925492 ] } },
{ "type": "Feature", "properties": { "station_name": "Bons-en-Chablais" }, "geometry": { "type": "Point", "coordinates": [ 6.36548007046269, 46.270391310234999 ] } },
{ "type": "Feature", "properties": { "station_name": "Bonson" }, "geometry": { "type": "Point", "coordinates": [ 4.21444615603339, 45.522330502272197 ] } },
{ "type": "Feature", "properties": { "station_name": "Bonstetten-Wettswil" }, "geometry": { "type": "Point", "coordinates": [ 8.46829242043375, 47.3273769664127 ] } },
{ "type": "Feature", "properties": { "station_name": "Bordeaux-St-Jean" }, "geometry": { "type": "Point", "coordinates": [ -0.555922413654751, 44.826482849387403 ] } },
{ "type": "Feature", "properties": { "station_name": "Bossière" }, "geometry": { "type": "Point", "coordinates": [ 6.69821605174688, 46.510209212221 ] } },
{ "type": "Feature", "properties": { "station_name": "Bossonnens" }, "geometry": { "type": "Point", "coordinates": [ 6.85477443948503, 46.5251315569407 ] } },
{ "type": "Feature", "properties": { "station_name": "Boswil-Bünzen" }, "geometry": { "type": "Point", "coordinates": [ 8.313575579028299, 47.306061668485903 ] } },
{ "type": "Feature", "properties": { "station_name": "Bottighofen" }, "geometry": { "type": "Point", "coordinates": [ 9.21399292103801, 47.640313110029403 ] } },
{ "type": "Feature", "properties": { "station_name": "Bottighofen (See)" }, "geometry": { "type": "Point", "coordinates": [ 9.21189984642572, 47.644737440888598 ] } },
{ "type": "Feature", "properties": { "station_name": "Boudry" }, "geometry": { "type": "Point", "coordinates": [ 6.83414013740593, 46.959248963386898 ] } },
{ "type": "Feature", "properties": { "station_name": "Boudry Littorail" }, "geometry": { "type": "Point", "coordinates": [ 6.83914375353917, 46.949487255670498 ] } },
{ "type": "Feature", "properties": { "station_name": "Boudry Tuilière" }, "geometry": { "type": "Point", "coordinates": [ 6.84282684620457, 46.9514679471419 ] } },
{ "type": "Feature", "properties": { "station_name": "Bouquetins" }, "geometry": { "type": "Point", "coordinates": [ 7.07233741817622, 46.316397968133302 ] } },
{ "type": "Feature", "properties": { "station_name": "Bourg-Bruche" }, "geometry": { "type": "Point", "coordinates": [ 7.13709696701741, 48.360123272463298 ] } },
{ "type": "Feature", "properties": { "station_name": "Bourg-Saint-Maurice" }, "geometry": { "type": "Point", "coordinates": [ 6.77167129253956, 45.618827156335001 ] } },
{ "type": "Feature", "properties": { "station_name": "Bourg-en-Bresse" }, "geometry": { "type": "Point", "coordinates": [ 5.21477412395677, 46.1999285560956 ] } },
{ "type": "Feature", "properties": { "station_name": "Bourges" }, "geometry": { "type": "Point", "coordinates": [ 2.39438752493116, 47.094313222431197 ] } },
{ "type": "Feature", "properties": { "station_name": "Bourgoin-Jallieu" }, "geometry": { "type": "Point", "coordinates": [ 5.27322749950256, 45.5836183317302 ] } },
{ "type": "Feature", "properties": { "station_name": "Bouthéon" }, "geometry": { "type": "Point", "coordinates": [ 4.27772348465558, 45.524627720625197 ] } },
{ "type": "Feature", "properties": { "station_name": "Bouveret" }, "geometry": { "type": "Point", "coordinates": [ 6.85389409050646, 46.385614339857 ] } },
{ "type": "Feature", "properties": { "station_name": "Bouveret (lac)" }, "geometry": { "type": "Point", "coordinates": [ 6.85187288111691, 46.386828858165202 ] } },
{ "type": "Feature", "properties": { "station_name": "Bovernier" }, "geometry": { "type": "Point", "coordinates": [ 7.08212007162164, 46.078525949512198 ] } },
{ "type": "Feature", "properties": { "station_name": "Bowil" }, "geometry": { "type": "Point", "coordinates": [ 7.69804994626393, 46.900050490708601 ] } },
{ "type": "Feature", "properties": { "station_name": "Boën" }, "geometry": { "type": "Point", "coordinates": [ 4.00500394751177, 45.7413135435974 ] } },
{ "type": "Feature", "properties": { "station_name": "Brassac-les-Mines-Ste-Florine" }, "geometry": { "type": "Point", "coordinates": [ 3.33016255652872, 45.414091472112098 ] } },
{ "type": "Feature", "properties": { "station_name": "Brazey-en-Plaine" }, "geometry": { "type": "Point", "coordinates": [ 5.21212409386825, 47.1314590859795 ] } },
{ "type": "Feature", "properties": { "station_name": "Bregenz" }, "geometry": { "type": "Point", "coordinates": [ 9.73962414330803, 47.503003315109098 ] } },
{ "type": "Feature", "properties": { "station_name": "Bregenz Hafen" }, "geometry": { "type": "Point", "coordinates": [ 9.748292885800989, 47.5061164058366 ] } },
{ "type": "Feature", "properties": { "station_name": "Breitenbach (F)" }, "geometry": { "type": "Point", "coordinates": [ 7.10409286347426, 48.028520853030798 ] } },
{ "type": "Feature", "properties": { "station_name": "Bremgarten" }, "geometry": { "type": "Point", "coordinates": [ 8.34656171626577, 47.351471163863799 ] } },
{ "type": "Feature", "properties": { "station_name": "Bremgarten Isenlauf" }, "geometry": { "type": "Point", "coordinates": [ 8.34152216752115, 47.3460664491759 ] } },
{ "type": "Feature", "properties": { "station_name": "Bremgarten Obertor" }, "geometry": { "type": "Point", "coordinates": [ 8.34374998942608, 47.350570416515602 ] } },
{ "type": "Feature", "properties": { "station_name": "Bremgarten West" }, "geometry": { "type": "Point", "coordinates": [ 8.337309068838049, 47.345579510767102 ] } },
{ "type": "Feature", "properties": { "station_name": "Brenzikofen" }, "geometry": { "type": "Point", "coordinates": [ 7.6107426837882, 46.818347497630398 ] } },
{ "type": "Feature", "properties": { "station_name": "Brescia" }, "geometry": { "type": "Point", "coordinates": [ 10.212865618200899, 45.532160679844303 ] } },
{ "type": "Feature", "properties": { "station_name": "Bressonnaz" }, "geometry": { "type": "Point", "coordinates": [ 6.79126354888893, 46.653150283594996 ] } },
{ "type": "Feature", "properties": { "station_name": "Brest (F)" }, "geometry": { "type": "Point", "coordinates": [ -4.47981747415208, 48.387805124230702 ] } },
{ "type": "Feature", "properties": { "station_name": "Bretenoux-Biars" }, "geometry": { "type": "Point", "coordinates": [ 1.84369330623071, 44.927372440173102 ] } },
{ "type": "Feature", "properties": { "station_name": "Bretigny - Norges" }, "geometry": { "type": "Point", "coordinates": [ 5.11057853413724, 47.390042798430997 ] } },
{ "type": "Feature", "properties": { "station_name": "Bretonnières" }, "geometry": { "type": "Point", "coordinates": [ 6.4747511416382, 46.714407131993902 ] } },
{ "type": "Feature", "properties": { "station_name": "Breuil - Romain" }, "geometry": { "type": "Point", "coordinates": [ 3.76694141403412, 49.308368624663103 ] } },
{ "type": "Feature", "properties": { "station_name": "Briançon" }, "geometry": { "type": "Point", "coordinates": [ 6.63282768220672, 44.890020185946497 ] } },
{ "type": "Feature", "properties": { "station_name": "Briare" }, "geometry": { "type": "Point", "coordinates": [ 2.73372612355454, 47.646450179720603 ] } },
{ "type": "Feature", "properties": { "station_name": "Brienz" }, "geometry": { "type": "Point", "coordinates": [ 8.04106265439987, 46.7548823061815 ] } },
{ "type": "Feature", "properties": { "station_name": "Brienz (See)" }, "geometry": { "type": "Point", "coordinates": [ 8.03839465800567, 46.7537990952071 ] } },
{ "type": "Feature", "properties": { "station_name": "Brienz West" }, "geometry": { "type": "Point", "coordinates": [ 8.02112903824249, 46.757122514343799 ] } },
{ "type": "Feature", "properties": { "station_name": "Brienzwiler" }, "geometry": { "type": "Point", "coordinates": [ 8.090694573854391, 46.745452716919097 ] } },
{ "type": "Feature", "properties": { "station_name": "Brig" }, "geometry": { "type": "Point", "coordinates": [ 7.9868044112315, 46.319791693385604 ] } },
{ "type": "Feature", "properties": { "station_name": "Brig Bahnhofplatz" }, "geometry": { "type": "Point", "coordinates": [ 7.98638220304791, 46.318997568132303 ] } },
{ "type": "Feature", "properties": { "station_name": "Brigachtal Kirchdorf" }, "geometry": { "type": "Point", "coordinates": [ 8.467807330180261, 48.014341017178403 ] } },
{ "type": "Feature", "properties": { "station_name": "Brigachtal-Klengen" }, "geometry": { "type": "Point", "coordinates": [ 8.465777137637859, 48.007363827548303 ] } },
{ "type": "Feature", "properties": { "station_name": "Brignais" }, "geometry": { "type": "Point", "coordinates": [ 4.76385578387737, 45.673770820018397 ] } },
{ "type": "Feature", "properties": { "station_name": "Brignoud" }, "geometry": { "type": "Point", "coordinates": [ 5.90127564732931, 45.262463079909097 ] } },
{ "type": "Feature", "properties": { "station_name": "Brion-Montréal-La-Cluse" }, "geometry": { "type": "Point", "coordinates": [ 5.55868514737696, 46.175674424761397 ] } },
{ "type": "Feature", "properties": { "station_name": "Brioude" }, "geometry": { "type": "Point", "coordinates": [ 3.37863564926656, 45.300653091680999 ] } },
{ "type": "Feature", "properties": { "station_name": "Brissago (lago)" }, "geometry": { "type": "Point", "coordinates": [ 8.71094534501389, 46.118211663398903 ] } },
{ "type": "Feature", "properties": { "station_name": "Brittnau-Wikon" }, "geometry": { "type": "Point", "coordinates": [ 7.95753729927081, 47.262289654685702 ] } },
{ "type": "Feature", "properties": { "station_name": "Brive-la-Gaillarde" }, "geometry": { "type": "Point", "coordinates": [ 1.52850142244782, 45.152445994920399 ] } },
{ "type": "Feature", "properties": { "station_name": "Broc-Chocolaterie" }, "geometry": { "type": "Point", "coordinates": [ 7.10933004158141, 46.605779652224498 ] } },
{ "type": "Feature", "properties": { "station_name": "Broc-Village" }, "geometry": { "type": "Point", "coordinates": [ 7.09967315227578, 46.604002215600403 ] } },
{ "type": "Feature", "properties": { "station_name": "Bronschhofen" }, "geometry": { "type": "Point", "coordinates": [ 9.03486885335964, 47.475280780652902 ] } },
{ "type": "Feature", "properties": { "station_name": "Bronschhofen AMP" }, "geometry": { "type": "Point", "coordinates": [ 9.03110491231865, 47.480739033596201 ] } },
{ "type": "Feature", "properties": { "station_name": "Broye" }, "geometry": { "type": "Point", "coordinates": [ 4.29558199250636, 46.862190551823801 ] } },
{ "type": "Feature", "properties": { "station_name": "Bruchhausen (b Ettl)" }, "geometry": { "type": "Point", "coordinates": [ 8.37397829874091, 48.9239905075111 ] } },
{ "type": "Feature", "properties": { "station_name": "Brugg AG" }, "geometry": { "type": "Point", "coordinates": [ 8.2113742491398, 47.482845682563898 ] } },
{ "type": "Feature", "properties": { "station_name": "Brumath" }, "geometry": { "type": "Point", "coordinates": [ 7.70035861654444, 48.732722016265498 ] } },
{ "type": "Feature", "properties": { "station_name": "Brunnadern-Neckertal" }, "geometry": { "type": "Point", "coordinates": [ 9.13059333004874, 47.337824411253699 ] } },
{ "type": "Feature", "properties": { "station_name": "Brunnen" }, "geometry": { "type": "Point", "coordinates": [ 8.61266965291753, 47.001463773693096 ] } },
{ "type": "Feature", "properties": { "station_name": "Brunnen (See)" }, "geometry": { "type": "Point", "coordinates": [ 8.60526753497536, 46.993333518360799 ] } },
{ "type": "Feature", "properties": { "station_name": "Brusino Arsizio (lago)" }, "geometry": { "type": "Point", "coordinates": [ 8.93798554995386, 45.929932785890998 ] } },
{ "type": "Feature", "properties": { "station_name": "Brusino Arsizio Funivia (lago)" }, "geometry": { "type": "Point", "coordinates": [ 8.934509069803839, 45.924446665260803 ] } },
{ "type": "Feature", "properties": { "station_name": "Brusio" }, "geometry": { "type": "Point", "coordinates": [ 10.125261911681401, 46.259312161472003 ] } },
{ "type": "Feature", "properties": { "station_name": "Bruyères" }, "geometry": { "type": "Point", "coordinates": [ 6.71876052229755, 48.204918915496798 ] } },
{ "type": "Feature", "properties": { "station_name": "Brügg (Schiff)" }, "geometry": { "type": "Point", "coordinates": [ 7.28132148590287, 47.122223950518297 ] } },
{ "type": "Feature", "properties": { "station_name": "Brügg BE" }, "geometry": { "type": "Point", "coordinates": [ 7.27911163030363, 47.123098026073102 ] } },
{ "type": "Feature", "properties": { "station_name": "Brünig-Hasliberg" }, "geometry": { "type": "Point", "coordinates": [ 8.13854782904609, 46.757571775648501 ] } },
{ "type": "Feature", "properties": { "station_name": "Brüttelen" }, "geometry": { "type": "Point", "coordinates": [ 7.14829895861194, 47.020598993392703 ] } },
{ "type": "Feature", "properties": { "station_name": "Bubikon" }, "geometry": { "type": "Point", "coordinates": [ 8.82557935843634, 47.268989125744604 ] } },
{ "type": "Feature", "properties": { "station_name": "Buchberg (Fähre)" }, "geometry": { "type": "Point", "coordinates": [ 8.55843835920769, 47.553493896495098 ] } },
{ "type": "Feature", "properties": { "station_name": "Buchli" }, "geometry": { "type": "Point", "coordinates": [ 7.67838582469181, 47.263630835969302 ] } },
{ "type": "Feature", "properties": { "station_name": "Buchrain" }, "geometry": { "type": "Point", "coordinates": [ 8.35736844913523, 47.094154214703202 ] } },
{ "type": "Feature", "properties": { "station_name": "Buchs AG" }, "geometry": { "type": "Point", "coordinates": [ 8.069575181521801, 47.3897326344213 ] } },
{ "type": "Feature", "properties": { "station_name": "Buchs SG" }, "geometry": { "type": "Point", "coordinates": [ 9.479364239156689, 47.166502555651199 ] } },
{ "type": "Feature", "properties": { "station_name": "Buchs-Dällikon" }, "geometry": { "type": "Point", "coordinates": [ 8.437947330131969, 47.453174828233799 ] } },
{ "type": "Feature", "properties": { "station_name": "Buckten" }, "geometry": { "type": "Point", "coordinates": [ 7.84760147478496, 47.4093362757771 ] } },
{ "type": "Feature", "properties": { "station_name": "Buggingen" }, "geometry": { "type": "Point", "coordinates": [ 7.6281610171497, 47.855254298873803 ] } },
{ "type": "Feature", "properties": { "station_name": "Bugnei" }, "geometry": { "type": "Point", "coordinates": [ 8.78646671096033, 46.682345308274499 ] } },
{ "type": "Feature", "properties": { "station_name": "Buix" }, "geometry": { "type": "Point", "coordinates": [ 7.03090711726686, 47.478504800605002 ] } },
{ "type": "Feature", "properties": { "station_name": "Bulle" }, "geometry": { "type": "Point", "coordinates": [ 7.05381415701509, 46.619003677315902 ] } },
{ "type": "Feature", "properties": { "station_name": "Buochs (See)" }, "geometry": { "type": "Point", "coordinates": [ 8.426386012423739, 46.975359243413102 ] } },
{ "type": "Feature", "properties": { "station_name": "Buonas (See)" }, "geometry": { "type": "Point", "coordinates": [ 8.458527733294011, 47.142226292413 ] } },
{ "type": "Feature", "properties": { "station_name": "Burgdorf" }, "geometry": { "type": "Point", "coordinates": [ 7.62401080053649, 47.060690877524202 ] } },
{ "type": "Feature", "properties": { "station_name": "Burgdorf Buchmatt" }, "geometry": { "type": "Point", "coordinates": [ 7.60827231675653, 47.065457780539496 ] } },
{ "type": "Feature", "properties": { "station_name": "Burgdorf Steinhof" }, "geometry": { "type": "Point", "coordinates": [ 7.61852209414976, 47.052220771273497 ] } },
{ "type": "Feature", "properties": { "station_name": "Burghalden" }, "geometry": { "type": "Point", "coordinates": [ 8.692691578438041, 47.208669463021799 ] } },
{ "type": "Feature", "properties": { "station_name": "Burgholz" }, "geometry": { "type": "Point", "coordinates": [ 7.60323276801191, 46.665752435344302 ] } },
{ "type": "Feature", "properties": { "station_name": "Burgistein" }, "geometry": { "type": "Point", "coordinates": [ 7.52063267762562, 46.789607368583802 ] } },
{ "type": "Feature", "properties": { "station_name": "Burglauenen" }, "geometry": { "type": "Point", "coordinates": [ 7.9753329250517, 46.6359069667418 ] } },
{ "type": "Feature", "properties": { "station_name": "Burier" }, "geometry": { "type": "Point", "coordinates": [ 6.87601061280457, 46.4482630646052 ] } },
{ "type": "Feature", "properties": { "station_name": "Busseau-sur-Creuse" }, "geometry": { "type": "Point", "coordinates": [ 2.02308686849435, 46.123068413307898 ] } },
{ "type": "Feature", "properties": { "station_name": "Bussigny" }, "geometry": { "type": "Point", "coordinates": [ 6.55280575668621, 46.546914281037601 ] } },
{ "type": "Feature", "properties": { "station_name": "Bussnang" }, "geometry": { "type": "Point", "coordinates": [ 9.08414144670045, 47.556100811505097 ] } },
{ "type": "Feature", "properties": { "station_name": "Busswil BE" }, "geometry": { "type": "Point", "coordinates": [ 7.31841292398933, 47.098514523848898 ] } },
{ "type": "Feature", "properties": { "station_name": "Bussy-Chardonney" }, "geometry": { "type": "Point", "coordinates": [ 6.44650810910155, 46.526781788280303 ] } },
{ "type": "Feature", "properties": { "station_name": "Busto Arsizio" }, "geometry": { "type": "Point", "coordinates": [ 8.86579693371197, 45.615899167692199 ] } },
{ "type": "Feature", "properties": { "station_name": "Busto Arsizio Nord" }, "geometry": { "type": "Point", "coordinates": [ 8.852214406614189, 45.605430043764997 ] } },
{ "type": "Feature", "properties": { "station_name": "Buttes" }, "geometry": { "type": "Point", "coordinates": [ 6.55368610566477, 46.888423958836398 ] } },
{ "type": "Feature", "properties": { "station_name": "Byans" }, "geometry": { "type": "Point", "coordinates": [ 5.85204796975271, 47.118189569551802 ] } },
{ "type": "Feature", "properties": { "station_name": "Bäch SZ" }, "geometry": { "type": "Point", "coordinates": [ 8.72556093468855, 47.200540273267798 ] } },
{ "type": "Feature", "properties": { "station_name": "Bäretswil" }, "geometry": { "type": "Point", "coordinates": [ 8.85217847400282, 47.337319133690301 ] } },
{ "type": "Feature", "properties": { "station_name": "Bätterkinden" }, "geometry": { "type": "Point", "coordinates": [ 7.53439486778025, 47.130022886285602 ] } },
{ "type": "Feature", "properties": { "station_name": "Béard" }, "geometry": { "type": "Point", "coordinates": [ 3.31806224964995, 46.865237036159002 ] } },
{ "type": "Feature", "properties": { "station_name": "Bédarieux" }, "geometry": { "type": "Point", "coordinates": [ 3.14956525178419, 43.608693827410299 ] } },
{ "type": "Feature", "properties": { "station_name": "Bédarrides" }, "geometry": { "type": "Point", "coordinates": [ 4.89280894293068, 44.041076063899801 ] } },
{ "type": "Feature", "properties": { "station_name": "Bénestroff" }, "geometry": { "type": "Point", "coordinates": [ 6.75311209876707, 48.906705092584097 ] } },
{ "type": "Feature", "properties": { "station_name": "Béning-lès-Saint-Avold" }, "geometry": { "type": "Point", "coordinates": [ 6.82892092560447, 49.138190255158797 ] } },
{ "type": "Feature", "properties": { "station_name": "Bétaille" }, "geometry": { "type": "Point", "coordinates": [ 1.73441325190236, 44.942431170674801 ] } },
{ "type": "Feature", "properties": { "station_name": "Bévieux" }, "geometry": { "type": "Point", "coordinates": [ 7.03088016780833, 46.258989193058902 ] } },
{ "type": "Feature", "properties": { "station_name": "Béziers" }, "geometry": { "type": "Point", "coordinates": [ 3.21879841074092, 43.336182179242101 ] } },
{ "type": "Feature", "properties": { "station_name": "Bôle" }, "geometry": { "type": "Point", "coordinates": [ 6.83915273669201, 46.969824180670201 ] } },
{ "type": "Feature", "properties": { "station_name": "Böblingen" }, "geometry": { "type": "Point", "coordinates": [ 9.00412850433279, 48.687760495750403 ] } },
{ "type": "Feature", "properties": { "station_name": "Böblingen Danziger Str." }, "geometry": { "type": "Point", "coordinates": [ 8.99720249349126, 48.678959106048602 ] } },
{ "type": "Feature", "properties": { "station_name": "Böblingen Heusteigstr." }, "geometry": { "type": "Point", "coordinates": [ 9.02576891953024, 48.675631495436598 ] } },
{ "type": "Feature", "properties": { "station_name": "Böblingen Süd" }, "geometry": { "type": "Point", "coordinates": [ 9.01050654285093, 48.677233046697999 ] } },
{ "type": "Feature", "properties": { "station_name": "Böblingen Zimmerschlag" }, "geometry": { "type": "Point", "coordinates": [ 9.035228179473339, 48.670458730272699 ] } },
{ "type": "Feature", "properties": { "station_name": "Böhringen-Rickelshausen" }, "geometry": { "type": "Point", "coordinates": [ 8.92664881106669, 47.7487312230909 ] } },
{ "type": "Feature", "properties": { "station_name": "Bönigen" }, "geometry": { "type": "Point", "coordinates": [ 7.89805984430098, 46.689395120364601 ] } },
{ "type": "Feature", "properties": { "station_name": "Bühl (Baden)" }, "geometry": { "type": "Point", "coordinates": [ 8.129295181618369, 48.696678933303701 ] } },
{ "type": "Feature", "properties": { "station_name": "Bühler" }, "geometry": { "type": "Point", "coordinates": [ 9.421090526667751, 47.372974983696103 ] } },
{ "type": "Feature", "properties": { "station_name": "Bülach" }, "geometry": { "type": "Point", "coordinates": [ 8.5372560848052, 47.522589045887699 ] } },
{ "type": "Feature", "properties": { "station_name": "Büren (Schiff)" }, "geometry": { "type": "Point", "coordinates": [ 7.37403660638975, 47.140228229877003 ] } },
{ "type": "Feature", "properties": { "station_name": "Büren an der Aare" }, "geometry": { "type": "Point", "coordinates": [ 7.37174590241493, 47.138046773110901 ] } },
{ "type": "Feature", "properties": { "station_name": "Büren zum Hof" }, "geometry": { "type": "Point", "coordinates": [ 7.51880909759861, 47.095952197497297 ] } },
{ "type": "Feature", "properties": { "station_name": "Bürglen TG" }, "geometry": { "type": "Point", "coordinates": [ 9.14845183789952, 47.549765176378997 ] } },
{ "type": "Feature", "properties": { "station_name": "Büsingen (Schifflände)" }, "geometry": { "type": "Point", "coordinates": [ 8.69332039913701, 47.695430088579897 ] } },
{ "type": "Feature", "properties": { "station_name": "Bütschwil" }, "geometry": { "type": "Point", "coordinates": [ 9.07520320962222, 47.3597780075768 ] } },
{ "type": "Feature", "properties": { "station_name": "Cadenazzo" }, "geometry": { "type": "Point", "coordinates": [ 8.942378311693821, 46.152647979137697 ] } },
{ "type": "Feature", "properties": { "station_name": "Cadera" }, "geometry": { "type": "Point", "coordinates": [ 10.0513664963994, 46.345272030127099 ] } },
{ "type": "Feature", "properties": { "station_name": "Calde" }, "geometry": { "type": "Point", "coordinates": [ 8.66346938224156, 45.9456820597456 ] } },
{ "type": "Feature", "properties": { "station_name": "Camedo" }, "geometry": { "type": "Point", "coordinates": [ 8.61094488757178, 46.154751307612599 ] } },
{ "type": "Feature", "properties": { "station_name": "Camnago-Lentate" }, "geometry": { "type": "Point", "coordinates": [ 9.133288275901471, 45.666200350018698 ] } },
{ "type": "Feature", "properties": { "station_name": "Campagnac-St-Geniez" }, "geometry": { "type": "Point", "coordinates": [ 3.06639922276883, 44.421957639960603 ] } },
{ "type": "Feature", "properties": { "station_name": "Campascio" }, "geometry": { "type": "Point", "coordinates": [ 10.1316938491166, 46.244671085928701 ] } },
{ "type": "Feature", "properties": { "station_name": "Campione (lago)" }, "geometry": { "type": "Point", "coordinates": [ 8.97039676540941, 45.968938570387699 ] } },
{ "type": "Feature", "properties": { "station_name": "Campocologno" }, "geometry": { "type": "Point", "coordinates": [ 10.1420604074968, 46.233220122752002 ] } },
{ "type": "Feature", "properties": { "station_name": "Cannes" }, "geometry": { "type": "Point", "coordinates": [ 7.02032496321846, 43.554194756315503 ] } },
{ "type": "Feature", "properties": { "station_name": "Cantello Gaggiolo" }, "geometry": { "type": "Point", "coordinates": [ 8.907415880831021, 45.837827877061599 ] } },
{ "type": "Feature", "properties": { "station_name": "Cantine di Gandria (lago)" }, "geometry": { "type": "Point", "coordinates": [ 9.01697441289749, 45.998363668130096 ] } },
{ "type": "Feature", "properties": { "station_name": "Cantù-Cermenate" }, "geometry": { "type": "Point", "coordinates": [ 9.09837076080289, 45.713420582701197 ] } },
{ "type": "Feature", "properties": { "station_name": "Capdenac" }, "geometry": { "type": "Point", "coordinates": [ 2.07822546064128, 44.578415336856501 ] } },
{ "type": "Feature", "properties": { "station_name": "Capolago (lago)" }, "geometry": { "type": "Point", "coordinates": [ 8.9808711216237, 45.906166095800401 ] } },
{ "type": "Feature", "properties": { "station_name": "Capolago-Riva S. Vitale" }, "geometry": { "type": "Point", "coordinates": [ 8.9796224633786, 45.903740733688601 ] } },
{ "type": "Feature", "properties": { "station_name": "Cappella-Agnuzzo" }, "geometry": { "type": "Point", "coordinates": [ 8.9244479386203, 45.993258779856497 ] } },
{ "type": "Feature", "properties": { "station_name": "Caprino (lago)" }, "geometry": { "type": "Point", "coordinates": [ 8.984742860498789, 45.987591677565199 ] } },
{ "type": "Feature", "properties": { "station_name": "Carcassonne" }, "geometry": { "type": "Point", "coordinates": [ 2.35179839730512, 43.218191455523801 ] } },
{ "type": "Feature", "properties": { "station_name": "Carignan" }, "geometry": { "type": "Point", "coordinates": [ 5.16826834169143, 49.628538179948997 ] } },
{ "type": "Feature", "properties": { "station_name": "Carimate" }, "geometry": { "type": "Point", "coordinates": [ 9.10754255985503, 45.694461978363499 ] } },
{ "type": "Feature", "properties": { "station_name": "Casino Lacroix Laval" }, "geometry": { "type": "Point", "coordinates": [ 4.73080676457001, 45.7878815267253 ] } },
{ "type": "Feature", "properties": { "station_name": "Caslano" }, "geometry": { "type": "Point", "coordinates": [ 8.876289256231949, 45.977741522412302 ] } },
{ "type": "Feature", "properties": { "station_name": "Caslano (lago)" }, "geometry": { "type": "Point", "coordinates": [ 8.883933919300871, 45.969837659428997 ] } },
{ "type": "Feature", "properties": { "station_name": "Cassarate (lago)" }, "geometry": { "type": "Point", "coordinates": [ 8.96983082678033, 46.005140334961098 ] } },
{ "type": "Feature", "properties": { "station_name": "Castagnola Heleneum (lago)" }, "geometry": { "type": "Point", "coordinates": [ 8.98331453919684, 46.000591448531203 ] } },
{ "type": "Feature", "properties": { "station_name": "Castione-Arbedo" }, "geometry": { "type": "Point", "coordinates": [ 9.041507403310209, 46.223910959636903 ] } },
{ "type": "Feature", "properties": { "station_name": "Castrisch" }, "geometry": { "type": "Point", "coordinates": [ 9.2330821208282, 46.778492124897603 ] } },
{ "type": "Feature", "properties": { "station_name": "Cavadürli" }, "geometry": { "type": "Point", "coordinates": [ 9.868029330037951, 46.870402151820898 ] } },
{ "type": "Feature", "properties": { "station_name": "Cavaglia" }, "geometry": { "type": "Point", "coordinates": [ 10.0441440415141, 46.364318701279998 ] } },
{ "type": "Feature", "properties": { "station_name": "Cavigliano" }, "geometry": { "type": "Point", "coordinates": [ 8.721428684381021, 46.183741665908698 ] } },
{ "type": "Feature", "properties": { "station_name": "Cazis" }, "geometry": { "type": "Point", "coordinates": [ 9.432939305266929, 46.719870036571699 ] } },
{ "type": "Feature", "properties": { "station_name": "Ceilhes-Roqueredonde" }, "geometry": { "type": "Point", "coordinates": [ 3.15511684024083, 43.812215903665503 ] } },
{ "type": "Feature", "properties": { "station_name": "Celerina" }, "geometry": { "type": "Point", "coordinates": [ 9.858444305955061, 46.5139803656296 ] } },
{ "type": "Feature", "properties": { "station_name": "Celerina Staz" }, "geometry": { "type": "Point", "coordinates": [ 9.865118788517, 46.5096527903859 ] } },
{ "type": "Feature", "properties": { "station_name": "Cercy-la-Tour" }, "geometry": { "type": "Point", "coordinates": [ 3.64541732238151, 46.857706500334501 ] } },
{ "type": "Feature", "properties": { "station_name": "Cernay" }, "geometry": { "type": "Point", "coordinates": [ 7.17369433169753, 47.801790774612101 ] } },
{ "type": "Feature", "properties": { "station_name": "Cery-Fleur-de-Lys" }, "geometry": { "type": "Point", "coordinates": [ 6.60500685785366, 46.544578849725497 ] } },
{ "type": "Feature", "properties": { "station_name": "Cessieu" }, "geometry": { "type": "Point", "coordinates": [ 5.37557255983655, 45.561093718068904 ] } },
{ "type": "Feature", "properties": { "station_name": "Ceyzériat" }, "geometry": { "type": "Point", "coordinates": [ 5.32584182570077, 46.183486667150298 ] } },
{ "type": "Feature", "properties": { "station_name": "Chabons" }, "geometry": { "type": "Point", "coordinates": [ 5.42799823982506, 45.438591173963999 ] } },
{ "type": "Feature", "properties": { "station_name": "Chagny" }, "geometry": { "type": "Point", "coordinates": [ 4.7493659583425, 46.907421658249703 ] } },
{ "type": "Feature", "properties": { "station_name": "Chalon-sur-Saône" }, "geometry": { "type": "Point", "coordinates": [ 4.84339261914438, 46.781740203207903 ] } },
{ "type": "Feature", "properties": { "station_name": "Cham" }, "geometry": { "type": "Point", "coordinates": [ 8.45896790778329, 47.178483878833397 ] } },
{ "type": "Feature", "properties": { "station_name": "Cham (See)" }, "geometry": { "type": "Point", "coordinates": [ 8.463468467357361, 47.178667058512303 ] } },
{ "type": "Feature", "properties": { "station_name": "Cham Alpenblick" }, "geometry": { "type": "Point", "coordinates": [ 8.47233483921285, 47.182574741116298 ] } },
{ "type": "Feature", "properties": { "station_name": "Chamalières-sur-Loire" }, "geometry": { "type": "Point", "coordinates": [ 3.99198735904307, 45.205655188558602 ] } },
{ "type": "Feature", "properties": { "station_name": "Chamborigaud" }, "geometry": { "type": "Point", "coordinates": [ 3.9793390798409, 44.3002388047069 ] } },
{ "type": "Feature", "properties": { "station_name": "Chambrelien" }, "geometry": { "type": "Point", "coordinates": [ 6.81225717708173, 46.9671085417611 ] } },
{ "type": "Feature", "properties": { "station_name": "Chamby" }, "geometry": { "type": "Point", "coordinates": [ 6.91349730961609, 46.449179099319799 ] } },
{ "type": "Feature", "properties": { "station_name": "Chamby-Musée" }, "geometry": { "type": "Point", "coordinates": [ 6.91240136496931, 46.45382093029 ] } },
{ "type": "Feature", "properties": { "station_name": "Chambéry-Challes-les-Eaux" }, "geometry": { "type": "Point", "coordinates": [ 5.91975399272622, 45.571495653357402 ] } },
{ "type": "Feature", "properties": { "station_name": "Chambésy" }, "geometry": { "type": "Point", "coordinates": [ 6.14750386674075, 46.241925060831797 ] } },
{ "type": "Feature", "properties": { "station_name": "Chamelet" }, "geometry": { "type": "Point", "coordinates": [ 4.50722507347438, 45.981992659843897 ] } },
{ "type": "Feature", "properties": { "station_name": "Chamonix-Aiguille du Midi" }, "geometry": { "type": "Point", "coordinates": [ 6.86672203276548, 45.919953640741802 ] } },
{ "type": "Feature", "properties": { "station_name": "Chamonix-Mont-Blanc" }, "geometry": { "type": "Point", "coordinates": [ 6.87383668981669, 45.922622003772197 ] } },
{ "type": "Feature", "properties": { "station_name": "Chamoson-St-Pierre-de-Clages" }, "geometry": { "type": "Point", "coordinates": [ 7.23998999967478, 46.188269251788903 ] } },
{ "type": "Feature", "properties": { "station_name": "Chamousset" }, "geometry": { "type": "Point", "coordinates": [ 6.20616385480192, 45.557596625267301 ] } },
{ "type": "Feature", "properties": { "station_name": "Champ-du-Moulin" }, "geometry": { "type": "Point", "coordinates": [ 6.77498607593842, 46.959911125293601 ] } },
{ "type": "Feature", "properties": { "station_name": "Champagne-Ardenne TGV" }, "geometry": { "type": "Point", "coordinates": [ 3.99425111355936, 49.214387100819103 ] } },
{ "type": "Feature", "properties": { "station_name": "Champagne-sur-Seine" }, "geometry": { "type": "Point", "coordinates": [ 2.79928517299871, 48.406718463610602 ] } },
{ "type": "Feature", "properties": { "station_name": "Champagney" }, "geometry": { "type": "Point", "coordinates": [ 6.70131523947753, 47.703265510035699 ] } },
{ "type": "Feature", "properties": { "station_name": "Champagnole" }, "geometry": { "type": "Point", "coordinates": [ 5.91011506972628, 46.749429102580102 ] } },
{ "type": "Feature", "properties": { "station_name": "Champagnole Paul-Émile Victor" }, "geometry": { "type": "Point", "coordinates": [ 5.91987077371318, 46.7424979370005 ] } },
{ "type": "Feature", "properties": { "station_name": "Champigneulles" }, "geometry": { "type": "Point", "coordinates": [ 6.16938682706495, 48.734926083075202 ] } },
{ "type": "Feature", "properties": { "station_name": "Champigny-sur-Yonne" }, "geometry": { "type": "Point", "coordinates": [ 3.13056588352242, 48.3237422420614 ] } },
{ "type": "Feature", "properties": { "station_name": "Champs St-Bris" }, "geometry": { "type": "Point", "coordinates": [ 3.60348396491297, 47.738818440624698 ] } },
{ "type": "Feature", "properties": { "station_name": "Champéry" }, "geometry": { "type": "Point", "coordinates": [ 6.87149208692482, 46.174952855938102 ] } },
{ "type": "Feature", "properties": { "station_name": "Champéry-Village" }, "geometry": { "type": "Point", "coordinates": [ 6.87484280293505, 46.181477733129903 ] } },
{ "type": "Feature", "properties": { "station_name": "Chantenay-Saint-Imbert" }, "geometry": { "type": "Point", "coordinates": [ 3.1722746621699, 46.728128011307902 ] } },
{ "type": "Feature", "properties": { "station_name": "Chapeauroux" }, "geometry": { "type": "Point", "coordinates": [ 3.74192333336791, 44.8380072991853 ] } },
{ "type": "Feature", "properties": { "station_name": "Chaponost" }, "geometry": { "type": "Point", "coordinates": [ 4.76400849747569, 45.697925446249599 ] } },
{ "type": "Feature", "properties": { "station_name": "Charbonnières-les-Bains" }, "geometry": { "type": "Point", "coordinates": [ 4.73573851548051, 45.782080665845797 ] } },
{ "type": "Feature", "properties": { "station_name": "Chardonney-Château" }, "geometry": { "type": "Point", "coordinates": [ 6.43255727273723, 46.534698493094702 ] } },
{ "type": "Feature", "properties": { "station_name": "Charleville-Mézières" }, "geometry": { "type": "Point", "coordinates": [ 4.72552467069865, 49.767889473499103 ] } },
{ "type": "Feature", "properties": { "station_name": "Charmes" }, "geometry": { "type": "Point", "coordinates": [ 6.30150205591879, 48.3785457014191 ] } },
{ "type": "Feature", "properties": { "station_name": "Charrat-Fully" }, "geometry": { "type": "Point", "coordinates": [ 7.12557158192055, 46.126530142918703 ] } },
{ "type": "Feature", "properties": { "station_name": "Chasse-sur-Rhône" }, "geometry": { "type": "Point", "coordinates": [ 4.79475782965538, 45.582681558303101 ] } },
{ "type": "Feature", "properties": { "station_name": "Chastè" }, "geometry": { "type": "Point", "coordinates": [ 9.74945171251766, 46.4284964831228 ] } },
{ "type": "Feature", "properties": { "station_name": "Chauffailles" }, "geometry": { "type": "Point", "coordinates": [ 4.34549238969899, 46.207588149686998 ] } },
{ "type": "Feature", "properties": { "station_name": "Chaugey" }, "geometry": { "type": "Point", "coordinates": [ 5.25510848021935, 47.087028958098202 ] } },
{ "type": "Feature", "properties": { "station_name": "Chaumont" }, "geometry": { "type": "Point", "coordinates": [ 5.13476118158911, 48.109451391873399 ] } },
{ "type": "Feature", "properties": { "station_name": "Chavornay" }, "geometry": { "type": "Point", "coordinates": [ 6.56816694804679, 46.710083223566798 ] } },
{ "type": "Feature", "properties": { "station_name": "Chazay - Marcilly" }, "geometry": { "type": "Point", "coordinates": [ 4.72521924350201, 45.872964441967603 ] } },
{ "type": "Feature", "properties": { "station_name": "Chedde" }, "geometry": { "type": "Point", "coordinates": [ 6.72006307945971, 45.926277515268502 ] } },
{ "type": "Feature", "properties": { "station_name": "Cheilly-lès-Maranges" }, "geometry": { "type": "Point", "coordinates": [ 4.67578495341003, 46.892524839649603 ] } },
{ "type": "Feature", "properties": { "station_name": "Chemex" }, "geometry": { "type": "Point", "coordinates": [ 6.93005326030472, 46.243621151386201 ] } },
{ "type": "Feature", "properties": { "station_name": "Chemilly-Appoigny" }, "geometry": { "type": "Point", "coordinates": [ 3.55441798408754, 47.897244661477202 ] } },
{ "type": "Feature", "properties": { "station_name": "Chenevières" }, "geometry": { "type": "Point", "coordinates": [ 6.63269293491408, 48.519509409091498 ] } },
{ "type": "Feature", "properties": { "station_name": "Cheniménil Filature" }, "geometry": { "type": "Point", "coordinates": [ 6.6005062982796, 48.133947948285098 ] } },
{ "type": "Feature", "properties": { "station_name": "Chenonceaux" }, "geometry": { "type": "Point", "coordinates": [ 1.06618346141135, 47.330652669785003 ] } },
{ "type": "Feature", "properties": { "station_name": "Chernex" }, "geometry": { "type": "Point", "coordinates": [ 6.91008371153596, 46.445917202767298 ] } },
{ "type": "Feature", "properties": { "station_name": "Cheseaux" }, "geometry": { "type": "Point", "coordinates": [ 6.60595907205496, 46.584347779819304 ] } },
{ "type": "Feature", "properties": { "station_name": "Chessy" }, "geometry": { "type": "Point", "coordinates": [ 4.62052958027615, 45.8861787016127 ] } },
{ "type": "Feature", "properties": { "station_name": "Chevillon" }, "geometry": { "type": "Point", "coordinates": [ 5.11160261356128, 48.5244418233247 ] } },
{ "type": "Feature", "properties": { "station_name": "Chevroux" }, "geometry": { "type": "Point", "coordinates": [ 6.89665389803651, 46.8997374544997 ] } },
{ "type": "Feature", "properties": { "station_name": "Chexbres-Village" }, "geometry": { "type": "Point", "coordinates": [ 6.77905544417605, 46.481156380325402 ] } },
{ "type": "Feature", "properties": { "station_name": "Cheyres" }, "geometry": { "type": "Point", "coordinates": [ 6.78599043817042, 46.816853684439401 ] } },
{ "type": "Feature", "properties": { "station_name": "Chez-le-Maître-Ecoles" }, "geometry": { "type": "Point", "coordinates": [ 6.22215386686147, 46.599459612605997 ] } },
{ "type": "Feature", "properties": { "station_name": "Chiasso" }, "geometry": { "type": "Point", "coordinates": [ 9.02772724684989, 45.833384173578999 ] } },
{ "type": "Feature", "properties": { "station_name": "Chigny" }, "geometry": { "type": "Point", "coordinates": [ 6.472253825148, 46.516020388730198 ] } },
{ "type": "Feature", "properties": { "station_name": "Chindrieux" }, "geometry": { "type": "Point", "coordinates": [ 5.8468826568683, 45.803295351660601 ] } },
{ "type": "Feature", "properties": { "station_name": "Chissay-en-Touraine" }, "geometry": { "type": "Point", "coordinates": [ 1.1340242316775, 47.334890081286098 ] } },
{ "type": "Feature", "properties": { "station_name": "Chorges" }, "geometry": { "type": "Point", "coordinates": [ 6.2717678200103, 44.545779647610402 ] } },
{ "type": "Feature", "properties": { "station_name": "Chur" }, "geometry": { "type": "Point", "coordinates": [ 9.531098216376339, 46.8546718749527 ] } },
{ "type": "Feature", "properties": { "station_name": "Chur Altstadt" }, "geometry": { "type": "Point", "coordinates": [ 9.53172703707531, 46.847416336609101 ] } },
{ "type": "Feature", "properties": { "station_name": "Chur West" }, "geometry": { "type": "Point", "coordinates": [ 9.51271868566069, 46.849941448874297 ] } },
{ "type": "Feature", "properties": { "station_name": "Chur Wiesental" }, "geometry": { "type": "Point", "coordinates": [ 9.53145754249004, 46.861908006210001 ] } },
{ "type": "Feature", "properties": { "station_name": "Châlons-en-Champagne" }, "geometry": { "type": "Point", "coordinates": [ 4.34888802147343, 48.955411256009 ] } },
{ "type": "Feature", "properties": { "station_name": "Château-Thierry" }, "geometry": { "type": "Point", "coordinates": [ 3.41280756267922, 49.037507328447802 ] } },
{ "type": "Feature", "properties": { "station_name": "Château-d'Hauteville" }, "geometry": { "type": "Point", "coordinates": [ 6.86529371146353, 46.468467954366197 ] } },
{ "type": "Feature", "properties": { "station_name": "Château-d'Oex" }, "geometry": { "type": "Point", "coordinates": [ 7.13141063126814, 46.474667155184797 ] } },
{ "type": "Feature", "properties": { "station_name": "Château-d'Oex La Palaz" }, "geometry": { "type": "Point", "coordinates": [ 7.14383433164924, 46.475898249748496 ] } },
{ "type": "Feature", "properties": { "station_name": "Château-de-Blonay" }, "geometry": { "type": "Point", "coordinates": [ 6.89174909658453, 46.468350397828502 ] } },
{ "type": "Feature", "properties": { "station_name": "Château-de-Chillon (lac)" }, "geometry": { "type": "Point", "coordinates": [ 6.92927172600743, 46.412829176665397 ] } },
{ "type": "Feature", "properties": { "station_name": "Châteauneuf-Conthey" }, "geometry": { "type": "Point", "coordinates": [ 7.30430039087385, 46.215899341223597 ] } },
{ "type": "Feature", "properties": { "station_name": "Châtel - Nomexy" }, "geometry": { "type": "Point", "coordinates": [ 6.38778523897049, 48.307158259769402 ] } },
{ "type": "Feature", "properties": { "station_name": "Châtel-Censoir" }, "geometry": { "type": "Point", "coordinates": [ 3.6354460227264, 47.537940651082899 ] } },
{ "type": "Feature", "properties": { "station_name": "Châtel-St-Denis" }, "geometry": { "type": "Point", "coordinates": [ 6.89610592571312, 46.528351624747799 ] } },
{ "type": "Feature", "properties": { "station_name": "Châtelard VD" }, "geometry": { "type": "Point", "coordinates": [ 6.90113649130489, 46.446777570159398 ] } },
{ "type": "Feature", "properties": { "station_name": "Châtillens" }, "geometry": { "type": "Point", "coordinates": [ 6.81585043821871, 46.570411282313103 ] } },
{ "type": "Feature", "properties": { "station_name": "Châtillon d'Azergues" }, "geometry": { "type": "Point", "coordinates": [ 4.64498172231328, 45.875359876979999 ] } },
{ "type": "Feature", "properties": { "station_name": "Chénens" },